[{"ID": "8591150", "WGS84Latitude": 50.5335384, "WGS84Longitude": 5.2739027, "Source": "nuclear", "Name": "Centrale nucl\u00e9aire de Tihange", "Power": "3008 MW", "wikipedia": "fr:Centrale nucl\u00e9aire de Tihange", "name:fr": "Centrale nucl\u00e9aire de Tihange", "plant:method": "fission", "name:nl": "Kerncentrale Tihange", "name:de": "Kernkraftwerk Tihange", "landuse": "industrial", "website": "http://www.electrabel.com/whoarewe/nuclear/tihange.aspx", "barrier": "fence", "name:en": "Tihange Nuclear Power Station", "wikidata": "Q1739481", "operator": "Engie Electrabel"}, {"ID": "15917174", "WGS84Latitude": 51.3247584, "WGS84Longitude": 4.2560282, "Source": "nuclear", "Name": "Kerncentrale Doel", "Power": "2935 MW", "wikipedia": "nl:Kerncentrale Doel", "name:fr": "Centrale nucl\u00e9aire de Doel", "plant:method": "fission", "name:nl": "Kerncentrale Doel", "name:de": "Kernkraftwerk Doel", "landuse": "industrial", "name:en": "Doel Nuclear Power Station", "start_date": "1975", "wikidata": "Q1739399", "ref:EU:ENTSOE_EIC": "22WDOELX1000076X;22WDOELX2000077N;22WDOELX3000078D;22WDOELX40000793", "operator": "Electrabel"}, {"ID": "404484074", "WGS84Latitude": 50.3848494, "WGS84Longitude": 5.8612502, "Source": "hydro_pumped_storage", "Name": "Coo - Trois-Ponts", "Power": "1164 MW", "wikipedia": "en:Coo-Trois-Ponts Hydroelectric Power Station", "plant:source": "hydro", "location": "underground", "plant:storage": "yes", "designation": "E95", "wikidata": "Q1639208", "ref:EU:ENTSOE_EIC": "22WCOOXIX000067T;22WCOOXII000070C"}, {"ID": "126975710", "WGS84Latitude": 51.325917, "WGS84Longitude": 4.2578295, "Source": "nuclear", "Name": "Doel 4", "Power": "1039 MW", "operator:wikidata": "Q608323", "generator:method": "fission", "generator:type": "PWR", "generator:plant": "output", "building": "yes", "start_date": "1985", "ref:EU:ENTSOE_EIC": "22WDOELX40000793", "operator": "Electrabel"}, {"ID": "1205916863", "WGS84Latitude": 50.5347209, "WGS84Longitude": 5.2773085, "Source": "nuclear", "Name": "Tihange 3", "Power": "1038 MW", "generator:method": "fission", "generator:type": "PWR", "start_date": "1985-10-01", "ref:EU:ENTSOE_EIC": "22WTIHANG000242R", "operator": "Engie Electrabel"}, {"ID": "1205918142", "WGS84Latitude": 50.5354234, "WGS84Longitude": 5.2734031, "Source": "nuclear", "Name": "Tihange 2", "Power": "1008 MW", "generator:method": "fission", "generator:type": "PWR", "start_date": "1983-02-01", "ref:EU:ENTSOE_EIC": "22WTIHANG000241T", "operator": "Engie Electrabel"}, {"ID": "126975712", "WGS84Latitude": 51.3243749, "WGS84Longitude": 4.2588026, "Source": "nuclear", "Name": "Doel 3", "Power": "1006 MW", "operator:wikidata": "Q608323", "generator:method": "fission", "generator:type": "PWR", "generator:plant": "output", "building": "yes", "start_date": "1982", "ref:EU:ENTSOE_EIC": "22WDOELX3000078D", "operator": "Electrabel"}, {"ID": "1205917497", "WGS84Latitude": 50.5346757, "WGS84Longitude": 5.2714006, "Source": "nuclear", "Name": "Tihange 1", "Power": "962 MW", "generator:method": "fission", "generator:type": "PWR", "start_date": "1975-10-01", "ref:EU:ENTSOE_EIC": "22WTIHANG000239G;22WTIHANG000240V", "operator": "Engie Electrabel"}, {"ID": "933815780", "WGS84Latitude": 50.5004535, "WGS84Longitude": 5.1064975, "Source": "solar", "Power": "500 MW", "plant:source": "solar", "addr:street": "rue du Bois d'Axhelet", "addr:city": "Seilles", "addr:postcode": "5300", "operator": "Trans&Wall (AIEG)"}, {"ID": "239707263", "WGS84Latitude": 50.6033946, "WGS84Longitude": 5.4914195, "Source": "fossil_gas", "Power": "470 MW", "generator:type": "combined_cycle", "building": "yes", "operator": "Luminus"}, {"ID": "24394061", "WGS84Latitude": 50.6030633, "WGS84Longitude": 5.4913251, "Source": "fossil_gas", "Name": "Centrale TGV Seraing", "Power": "470 MW", "landuse": "industrial", "wikidata": "Q12000008", "ref:EU:ENTSOE_EIC": "22W201806271---D", "operator": "Luminus"}, {"ID": "271837918", "WGS84Latitude": 51.2627898, "WGS84Longitude": 3.2110256, "Source": "fossil_gas", "Name": "Herdersbrug", "Power": "460 MW", "wikipedia": "nl:Centrale Herdersbrug", "source:generator": "https://www.electrabel.com/assets/be/corporate/html/production-maps/corp/energy-mix_NL.html", "addr:housenumber": "300", "plant:method": "combustion", "operator:wikidata": "Q13416787", "addr:street": "Pathoekeweg", "phone": "+32 50 45 05 11", "landuse": "industrial", "fax": "+32 50 45 05 12", "start_date": "1998", "wikidata": "Q17750993", "ref:EU:ENTSOE_EIC": "22WHERDER0001288", "operator": "Engie Electrabel"}, {"ID": "224993822", "WGS84Latitude": 51.2624352, "WGS84Longitude": 3.2113191, "Source": "fossil_gas", "Power": "460 MW", "generator:method": "combustion", "generator:type": "combined_cycle", "building": "industrial"}, {"ID": "23176038", "WGS84Latitude": 50.8022716, "WGS84Longitude": 4.2993058, "Source": "fossil_gas", "Name": "Centrale Drogenbos", "Power": "460 MW", "name:fr": "Centrale de Drogenbos", "plant:method": "combustion", "landuse": "industrial", "start_date": "1994", "wikidata": "Q2944469", "ref:EU:ENTSOE_EIC": "22WDROGEN0000863", "operator": "Engie"}, {"ID": "648564082", "WGS84Latitude": 50.4305617, "WGS84Longitude": 4.3955417, "Source": "fossil_gas", "Name": "Centrale d'Amercoeur", "Power": "451 MW", "plant:method": "combustion", "plant:type": "combined_cycle", "landuse": "industrial", "wikidata": "Q11957696", "ref:EU:ENTSOE_EIC": "22WAMERCO000010Y", "operator": "Engie Electrabel"}, {"ID": "58642525", "WGS84Latitude": 51.3230576, "WGS84Longitude": 4.261196, "Source": "nuclear", "Name": "Doel 2", "Power": "445 MW", "operator:wikidata": "Q608323", "generator:method": "fission", "generator:type": "PWR", "generator:plant": "output", "building": "yes", "start_date": "1975", "ref:EU:ENTSOE_EIC": "22WDOELX2000077N", "operator": "Electrabel"}, {"ID": "58642524", "WGS84Latitude": 51.3223493, "WGS84Longitude": 4.2611217, "Source": "nuclear", "Name": "Doel 1", "Power": "445 MW", "operator:wikidata": "Q608323", "operator:wikipedia": "fr:Engie - Electrabel", "image": "https://photos.app.goo.gl/e1jJ27gcqgS4h2iy7", "generator:method": "fission", "generator:type": "PWR", "generator:plant": "output", "building": "yes", "start_date": "1975", "ref:EU:ENTSOE_EIC": "22WDOELX1000076X", "operator": "Electrabel"}, {"ID": "137185678", "WGS84Latitude": 51.0582128, "WGS84Longitude": 5.1063275, "Source": "fossil_gas", "Name": "T-Power CCGT site", "Power": "425 MW", "addr:housenumber": "12", "plant:method": "combustion", "plant:type": "combined_cycle", "addr:street": "Fabrieksstraat", "landuse": "industrial", "start_date": "2011-06", "wikidata": "Q46994801", "addr:city": "Tessenderlo", "addr:postcode": "3980", "ref:EU:ENTSOE_EIC": "22WT-POWE000244W", "operator": "Tessenderlo Group"}, {"ID": "676641615", "WGS84Latitude": 50.4138133, "WGS84Longitude": 4.4066894, "Source": "fossil_gas", "Name": "Marcinelle Energie", "Power": "413 MW", "plant:method": "combustion", "landuse": "industrial", "wikidata": "Q106164522", "ref:EU:ENTSOE_EIC": "22WMARCIN000179H", "operator": "Total Direct Energie"}, {"ID": "694038832", "WGS84Latitude": 51.3696259, "WGS84Longitude": 4.2666221, "Source": "fossil_gas", "Power": "400 MW", "generator:output:steam": "yes", "generator:method": "combustion", "generator:type": "combined_cycle", "building": "yes", "start_date": "2005", "manufacturer": "Siemens"}, {"ID": "45602323", "WGS84Latitude": 51.3700485, "WGS84Longitude": 4.2659652, "Source": "fossil_gas", "Name": "BASF Zandvliet Power Station", "Power": "400 MW", "plant:method": "combustion", "operator:wikidata": "Q608323", "plant:output:steam": "yes", "landuse": "industrial", "start_date": "2005", "owner:wikidata": "Q64235893", "wikidata": "Q1786053", "owner": "Zandvliet Power", "ref:EU:ENTSOE_EIC": "22WZANDVL000255D", "operator": "Electrabel"}, {"ID": "789978857", "WGS84Latitude": 51.53225, "WGS84Longitude": 3.0108322, "Source": "wind_offshore", "Name": "Norther", "Power": "370 MW", "plant:source": "wind", "access": "no", "area": "yes", "website": "https://www.norther.be/", "wikidata": "Q28401507", "ref:EU:ENTSOE_EIC": "22W201902131---T", "operator": "Elicio;Eneco;DGE"}, {"ID": "241978751", "WGS84Latitude": 51.1054591, "WGS84Longitude": 3.7262712, "Source": "fossil_gas", "Name": "Centrale Ringvaart", "Power": "365 MW", "wikipedia": "nl:Centrale Ringvaart", "plant:method": "combustion", "operator:wikidata": "Q1837429", "landuse": "industrial", "name:en": "Ringvaart Power Plant", "start_date": "1997", "wikidata": "Q11997921", "ref:EU:ENTSOE_EIC": "22WRINGVA000209C", "operator": "Luminus"}, {"ID": "116615489", "WGS84Latitude": 50.4715135, "WGS84Longitude": 3.825031, "Source": "fossil_gas", "Name": "Centrale TGV Baudour", "Power": "350 MW", "plant:method": "combustion", "plant:type": "combined_cycle", "alt_name": "Centrale au gaz de Saint-Ghislain", "landuse": "industrial", "name:en": "Saint-Ghislain Power Plant", "wikidata": "Q19387375", "ref:EU:ENTSOE_EIC": "22WSAINT-000221B", "operator": "Engie Electrabel"}, {"ID": "6063927", "WGS84Latitude": 51.5506667, "WGS84Longitude": 2.9493333, "Source": "wind_offshore", "Name": "Thorntonbank Wind Farm", "Power": "325.2 MW", "wikipedia": "en:Thorntonbank Wind Farm", "plant:source": "wind", "wikidata": "Q374972", "ref:EU:ENTSOE_EIC": "22WTHORNT000238C;22WTHORNT000237E", "operator": "C-Power"}, {"ID": "656368507", "WGS84Latitude": 51.1586548, "WGS84Longitude": 3.8083709, "Source": "fossil_gas", "Name": "Knippegroen", "Power": "315 MW", "operator:wikidata": "Q608323", "landuse": "industrial", "start_date": "2010", "wikidata": "Q46994770", "ref:EU:ENTSOE_EIC": "22WZELZAT0002618", "operator": "Engie Electrabel"}, {"ID": "251826599", "WGS84Latitude": 51.1586729, "WGS84Longitude": 3.8072088, "Source": "fossil_gas", "Power": "315 MW", "generator:method": "combustion", "generator:type": "steam_generator", "building": "industrial", "start_date": "2010"}, {"ID": "632999580", "WGS84Latitude": 51.5907216, "WGS84Longitude": 2.9465, "Source": "wind_offshore", "Name": "Rentel", "Power": "309 MW", "plant:source": "wind", "access": "no", "area": "yes", "website": "https://rentel.be/", "wikidata": "Q18088175", "ref:EU:ENTSOE_EIC": "22W20180628----H"}, {"ID": "82074004", "WGS84Latitude": 50.9412008, "WGS84Longitude": 4.4245772, "Source": "fossil_gas", "Power": "255 MW", "generator:method": "combustion", "generator:type": "gas_turbine", "generator:plant": "output", "building": "yes"}, {"ID": "33838112", "WGS84Latitude": 50.9410515, "WGS84Longitude": 4.4242443, "Source": "fossil_gas", "Name": "Centrale Vilvoorde", "Power": "255 MW", "wikipedia": "nl:Centrale Vilvoorde", "plant:method": "combustion", "was:operator": "Energy Market", "landuse": "industrial", "name:en": "Vilvoorde Power Plant", "start_date": "1961", "wikidata": "Q19398143", "old_name": "Verbrande Brug", "ref:EU:ENTSOE_EIC": "22W20181005PU--J", "operator": "Engie Electrabel"}, {"ID": "688991076", "WGS84Latitude": 51.633667, "WGS84Longitude": 2.8592361, "Source": "wind_offshore", "Name": "Seastar", "Power": "252 MW", "plant:source": "wind", "access": "no", "area": "yes", "wikidata": "Q18088030", "ref:EU:ENTSOE_EIC": "22W20200608C---Z", "operator": "Otary"}, {"ID": "685961778", "WGS84Latitude": 51.7157767, "WGS84Longitude": 2.7467872, "Source": "wind_offshore", "Name": "Mermaid", "Power": "237 MW", "plant:source": "wind", "access": "no", "area": "yes", "wikidata": "Q106313857", "ref:EU:ENTSOE_EIC": "22W20200608A---8", "operator": "Otary"}, {"ID": "801038528", "WGS84Latitude": 51.6815119, "WGS84Longitude": 2.7541839, "Source": "wind_offshore", "Name": "Northwester 2", "Power": "219 MW", "operator:wikidata": "Q66124532", "access": "no", "note": "not all 23 turbines visible on Sentinel-1 SAR", "area": "yes", "url": "http://parkwind.be/projects/northwester-2/", "start_date": "2020", "wikidata": "Q97166916", "ref:EU:ENTSOE_EIC": "22W201909111---M", "operator": "Parkwind"}, {"ID": "259551141", "WGS84Latitude": 51.6220422, "WGS84Longitude": 2.9021863, "Source": "wind_offshore", "Name": "Northwind", "Power": "216 MW", "operator:wikidata": "Q66124532", "access": "no", "area": "yes", "url": "http://parkwind.be/projects/northwind/", "source": "MDK - afdeling KUST - Vlaamse Hydrografie\u201d https://www.afdelingkust.be/sites/default/files/atoms/files/baz201413.pdf (13/208)", "start_date": "2014", "wikidata": "Q21004443", "old_name": "Eldepasco", "ref:EU:ENTSOE_EIC": "22WNORTHW000187B", "operator": "Parkwind"}, {"ID": "8486296583", "WGS84Latitude": 51.1335389, "WGS84Longitude": 3.7763302, "Source": "biomass", "Name": "Groep 4", "Power": "215 MW", "generator:source": "biofuel;blast_furnace_gas", "generator:method": "combustion", "generator:type": "steam_turbine", "start_date": "1979", "fixme": "position"}, {"ID": "88045202", "WGS84Latitude": 51.135914, "WGS84Longitude": 3.7779421, "Source": "biomass", "Name": "Elektriciteitscentrale Rodenhuize", "Power": "215 MW", "wikipedia": "nl:Centrale Rodenhuize", "plant:source": "biofuel;blast_furnance_gas", "plant:method": "combustion", "operator:wikidata": "Q608323", "name:en": "Rodenhuize Power Plant", "start_date": "1964", "wikidata": "Q11998171", "ref:EU:ENTSOE_EIC": "22WRODENH000213L", "operator": "Engie Electrabel"}, {"ID": "309030730", "WGS84Latitude": 50.6180557, "WGS84Longitude": 5.5831793, "Source": "fossil_gas", "Name": "Centrale d'Angleur", "Power": "178 MW", "plant:method": "combustion", "landuse": "industrial", "source": "https://www.luminus.be/fr/corporate/production-d-energie/les-centrales-thermiques/", "name:en": "Angleur Power Plant", "operator": "Luminus"}, {"ID": "114331528", "WGS84Latitude": 51.6690556, "WGS84Longitude": 2.8065887, "Source": "wind_offshore", "Name": "Belwind", "Power": "171 MW", "operator:wikidata": "Q66124532", "alt_name": "Belwind phase 1", "url": "http://parkwind.be/projects/belwind/", "wikidata": "Q3364822", "ref:EU:ENTSOE_EIC": "22WBELWIN0000271", "operator": "Parkwind"}, {"ID": "114325518", "WGS84Latitude": 51.0603076, "WGS84Longitude": 3.7352764, "Source": "fossil_gas", "Name": "Centrale Ham", "Power": "170 MW", "addr:housenumber": "68", "operator:wikidata": "Q1837429", "addr:street": "Ham", "landuse": "industrial", "name:en": "Ham (Gent) Power Plant", "operator": "Luminus"}, {"ID": "8501206", "WGS84Latitude": 51.6655708, "WGS84Longitude": 2.8168892, "Source": "wind_offshore", "Name": "Nobelwind", "Power": "165 MW", "alt_name": "Belwind phase 2", "start_date": "2017", "wikidata": "Q27926309", "ref:EU:ENTSOE_EIC": "22W20161130----Z", "operator": "Parkwind"}, {"ID": "6456658394", "WGS84Latitude": 50.801953, "WGS84Longitude": 4.2988448, "Source": "fossil_gas", "Power": "150 MW", "generator:method": "combustion", "generator:type": "combined_cycle"}, {"ID": "6456658395", "WGS84Latitude": 50.8022084, "WGS84Longitude": 4.2989068, "Source": "fossil_gas", "Power": "150 MW", "generator:method": "combustion", "generator:type": "combined_cycle"}, {"ID": "239441192", "WGS84Latitude": 50.1891828, "WGS84Longitude": 4.3870341, "Source": "hydro_pumped_storage", "Name": "Centrale de la Plate Taille", "Power": "144 MW", "plant:source": "hydro", "landuse": "industrial", "start_date": "1981-01-19", "wikidata": "Q84761452", "ref:EU:ENTSOE_EIC": "22WPLATEX000208N", "operator": "Lampiris"}, {"ID": "442665324", "WGS84Latitude": 51.2564341, "WGS84Longitude": 4.3383497, "Source": "fossil_gas", "Name": "Cogen 2", "Power": "140 MW", "plant:method": "combustion", "plant:type": "gas_turbine", "alt_name": "Scheldelaan Exxonmobil", "source": "https://www.lne.be/merdatabank/uploads/merntech338.pdf", "name:en": "Antwerp Refinery ExxonMobil Power Plant", "start_date": "2009", "height": "60 m", "ref:EU:ENTSOE_EIC": "22WSCHELD0002261", "operator": "Esso Raffinaderij Antwerpen"}, {"ID": "223149622", "WGS84Latitude": 50.5853411, "WGS84Longitude": 5.418484, "Source": "biomass", "Name": "Centrale des Awirs", "Power": "126 MW", "building:levels": "10", "generator:method": "combustion", "generator:type": "steam_turbine", "building": "industrial", "operator": "Electrabel"}, {"ID": "12524235", "WGS84Latitude": 50.4123257, "WGS84Longitude": 4.0775861, "Source": "wind_onshore", "Name": "Parc \u00e9olien d'Estinnes", "Power": "81 MW", "plant:source": "wind", "site": "wind_farm", "wikidata": "Q2334784"}, {"ID": "903227228", "WGS84Latitude": 51.2369944, "WGS84Longitude": 4.3355441, "Source": "fossil_gas", "Name": "Electrabel LanXess Rubber", "Power": "58 MW", "plant:output:hot_water": "yes", "plant:method": "combustion", "alt_name": "Cog\u00e9n\u00e9ration - Arlanxeo - Zwijndrecht", "source": "https://corporate.engie.be/fr/energy-production-cards", "operator": "Electrabel"}, {"ID": "421372327", "WGS84Latitude": 51.2371742, "WGS84Longitude": 4.335302, "Source": "fossil_gas", "Power": "58 MW", "generator:method": "combustion", "generator:type": "gas_turbine", "building": "industrial", "generator:output:hot_water": "yes"}, {"ID": "442661574", "WGS84Latitude": 51.2715117, "WGS84Longitude": 4.3264741, "Source": "fossil_gas", "Name": "Cogen 3", "Power": "42 MW", "generator:output:steam": "yes", "generator:method": "combustion", "generator:type": "gas_turbine", "start_date": "2000", "owner": "Total Raffinaderij Antwerpen", "operator": "Engie-Electrabel"}, {"ID": "442661573", "WGS84Latitude": 51.2716227, "WGS84Longitude": 4.3261771, "Source": "fossil_gas", "Name": "Cogen 2", "Power": "42 MW", "generator:output:steam": "yes", "generator:method": "combustion", "generator:type": "gas_turbine", "start_date": "2000", "owner": "Total Raffinaderij Antwerpen", "operator": "Engie-Electrabel"}, {"ID": "442661572", "WGS84Latitude": 51.2717454, "WGS84Longitude": 4.3258203, "Source": "fossil_gas", "Name": "Cogen 1", "Power": "42 MW", "generator:output:steam": "yes", "generator:method": "combustion", "generator:type": "gas_turbine", "start_date": "2000", "owner": "Total Raffinaderij Antwerpen", "operator": "Engie-Electrabel"}, {"ID": "700861943", "WGS84Latitude": 50.9108989, "WGS84Longitude": 3.3068295, "Source": "biomass", "Name": "A&S Energie", "Power": "26 MW", "addr:housenumber": "5", "plant:method": "combustion", "addr:street": "Nieuwenhovestraat", "landuse": "industrial", "website": "http://www.a-s-energie.be/", "start_date": "2010", "addr:city": "Oostrozebeke", "addr:postcode": "8780", "operator": "Aspiravi & UNILIN"}, {"ID": "312050696", "WGS84Latitude": 50.6530161, "WGS84Longitude": 5.6322092, "Source": "hydro_run-of-river", "Name": "Centrale hydro-\u00e9lectrique de Monsin", "Power": "20 MW", "plant:source": "hydro", "landuse": "industrial", "source": "https://www.luminus.be/fr/corporate/production-d-energie/numero-1-en-hydroelectricite/", "wikidata": "Q84761425", "owner": "Luminus", "operator": "Luminus"}, {"ID": "874155186", "WGS84Latitude": 50.919967, "WGS84Longitude": 3.3610565, "Source": "biomass", "Name": "A&U Energie", "Power": "20 MW", "plant:method": "combustion", "plant:output:steam": "30 MW", "landuse": "industrial", "website": "https://www.a-s-energie.be/nl/", "start_date": "2020", "operator": "Aspiravi & UNILIN"}, {"ID": "9214804", "WGS84Latitude": 50.41269, "WGS84Longitude": 5.1087377, "Source": "wind_onshore", "Name": "Les G\u00e9antes du Samson", "Power": "19.2 MW", "site": "wind"}, {"ID": "128604237", "WGS84Latitude": 50.7517338, "WGS84Longitude": 5.6878571, "Source": "hydro_run-of-river", "Name": "Centrale de Lixhe", "Power": "16 MW", "plant:source": "hydro", "source": "https://www.luminus.be/fr/corporate/production-d-energie/numero-1-en-hydroelectricite/", "building": "industrial", "operator": "Luminus"}, {"ID": "398756083", "WGS84Latitude": 51.1886928, "WGS84Longitude": 3.7879454, "Source": "solar", "Name": "Zonneberg", "Power": "15 MW", "generator:source": "solar", "generator:type": "solar_photovoltaic_panel"}, {"ID": "223154245", "WGS84Latitude": 50.593221, "WGS84Longitude": 5.4613365, "Source": "hydro_run-of-river", "Name": "Centrale d'Ivoz-Ramet", "Power": "10 MW", "plant:source": "hydro", "operator:wikidata": "Q1837429", "operator:wikipedia": "fr:Luminus", "landuse": "industrial", "source": "https://www.luminus.be/fr/corporate/production-d-energie/numero-1-en-hydroelectricite/", "building": "yes", "operator": "Luminus"}, {"ID": "223154058", "WGS84Latitude": 50.5342688, "WGS84Longitude": 5.2964579, "Source": "hydro_run-of-river", "Name": "Centrale d'Ampsin", "Power": "10 MW", "plant:source": "hydro", "source": "https://www.luminus.be/fr/corporate/production-d-energie/numero-1-en-hydroelectricite/", "building": "industrial", "operator": "Luminus"}, {"ID": "7492546902", "WGS84Latitude": 51.7067149, "WGS84Longitude": 2.7679538, "Source": "wind_offshore", "Power": "9.5 MW", "generator:source": "wind", "generator:type": "horizontal_axis", "manufacturer:type": "Offshore V164-9.5 MW", "offshore": "yes", "start_date": "2020", "manufacturer": "MHI Vestas", "rotor:diameter": "164", "height": "85"}, {"ID": "7492546901", "WGS84Latitude": 51.6940543, "WGS84Longitude": 2.7736186, "Source": "wind_offshore", "Power": "9.5 MW", "generator:source": "wind", "generator:type": "horizontal_axis", "manufacturer:type": "Offshore V164-9.5 MW", "offshore": "yes", "start_date": "2020", "manufacturer": "MHI Vestas", "rotor:diameter": "164", "height": "85"}, {"ID": "7492546903", "WGS84Latitude": 51.7027256, "WGS84Longitude": 2.778511, "Source": "wind_offshore", "Power": "9.5 MW", "generator:source": "wind", "generator:type": "horizontal_axis", "manufacturer:type": "Offshore V164-9.5 MW", "offshore": "yes", "start_date": "2020", "manufacturer": "MHI Vestas", "rotor:diameter": "164", "height": "85"}, {"ID": "7492546904", "WGS84Latitude": 51.709333, "WGS84Longitude": 2.781833, "Source": "wind_offshore", "Name": "NW2 A04", "Power": "9.5 MW", "generator:source": "wind", "generator:type": "horizontal_axis", "manufacturer:type": "Offshore V164-9.5 MW", "offshore": "yes", "start_date": "2020", "manufacturer": "MHI Vestas", "rotor:diameter": "164", "height": "85"}, {"ID": "7492546900", "WGS84Latitude": 51.696076, "WGS84Longitude": 2.7654647, "Source": "wind_offshore", "Power": "9.5 MW", "generator:source": "wind", "generator:type": "horizontal_axis", "manufacturer:type": "Offshore V164-9.5 MW", "offshore": "yes", "start_date": "2020", "manufacturer": "MHI Vestas", "rotor:diameter": "164", "height": "85"}, {"ID": "7492546899", "WGS84Latitude": 51.697672, "WGS84Longitude": 2.7586841, "Source": "wind_offshore", "Power": "9.5 MW", "generator:source": "wind", "generator:type": "horizontal_axis", "manufacturer:type": "Offshore V164-9.5 MW", "offshore": "yes", "start_date": "2020", "manufacturer": "MHI Vestas", "rotor:diameter": "164", "height": "85"}, {"ID": "7492546898", "WGS84Latitude": 51.7025128, "WGS84Longitude": 2.760229, "Source": "wind_offshore", "Power": "9.5 MW", "generator:source": "wind", "generator:type": "horizontal_axis", "manufacturer:type": "Offshore V164-9.5 MW", "offshore": "yes", "start_date": "2020", "manufacturer": "MHI Vestas", "rotor:diameter": "164", "height": "85"}, {"ID": "7492546897", "WGS84Latitude": 51.6995, "WGS84Longitude": 2.746667, "Source": "wind_offshore", "Name": "NW2 C04", "Power": "9.5 MW", "generator:source": "wind", "generator:type": "horizontal_axis", "manufacturer:type": "Offshore V164-9.5 MW", "offshore": "yes", "start_date": "2020", "manufacturer": "MHI Vestas", "rotor:diameter": "164", "height": "85"}, {"ID": "7492546892", "WGS84Latitude": 51.6835189, "WGS84Longitude": 2.7417754, "Source": "wind_offshore", "Power": "9.5 MW", "generator:source": "wind", "generator:type": "horizontal_axis", "manufacturer:type": "Offshore V164-9.5 MW", "offshore": "yes", "start_date": "2020", "manufacturer": "MHI Vestas", "rotor:diameter": "164", "height": "85"}, {"ID": "7492546893", "WGS84Latitude": 51.676, "WGS84Longitude": 2.734, "Source": "wind_offshore", "Name": "NW2 E04", "Power": "9.5 MW", "generator:source": "wind", "generator:type": "horizontal_axis", "manufacturer:type": "Offshore V164-9.5 MW", "offshore": "yes", "start_date": "2020", "manufacturer": "MHI Vestas", "rotor:diameter": "164", "height": "85"}, {"ID": "7492546890", "WGS84Latitude": 51.6748972, "WGS84Longitude": 2.7619456, "Source": "wind_offshore", "Power": "9.5 MW", "generator:source": "wind", "generator:type": "horizontal_axis", "manufacturer:type": "Offshore V164-9.5 MW", "offshore": "yes", "start_date": "2020", "manufacturer": "MHI Vestas", "rotor:diameter": "164", "height": "85"}, {"ID": "7492546895", "WGS84Latitude": 51.688333, "WGS84Longitude": 2.7235, "Source": "wind_offshore", "Name": "NW2 D04", "Power": "9.5 MW", "generator:source": "wind", "generator:type": "horizontal_axis", "manufacturer:type": "Offshore V164-9.5 MW", "offshore": "yes", "start_date": "2020", "manufacturer": "MHI Vestas", "rotor:diameter": "164", "height": "85"}, {"ID": "7492546894", "WGS84Latitude": 51.6829335, "WGS84Longitude": 2.7295875, "Source": "wind_offshore", "Power": "9.5 MW", "generator:source": "wind", "generator:type": "horizontal_axis", "manufacturer:type": "Offshore V164-9.5 MW", "offshore": "yes", "start_date": "2020", "manufacturer": "MHI Vestas", "rotor:diameter": "164", "height": "85"}, {"ID": "7492546891", "WGS84Latitude": 51.66835, "WGS84Longitude": 2.7586841, "Source": "wind_offshore", "Power": "9.5 MW", "generator:source": "wind", "generator:type": "horizontal_axis", "manufacturer:type": "Offshore V164-9.5 MW", "offshore": "yes", "start_date": "2020", "manufacturer": "MHI Vestas", "rotor:diameter": "164", "height": "85"}, {"ID": "7492546896", "WGS84Latitude": 51.6928839, "WGS84Longitude": 2.7357673, "Source": "wind_offshore", "Power": "9.5 MW", "generator:source": "wind", "generator:type": "horizontal_axis", "manufacturer:type": "Offshore V164-9.5 MW", "offshore": "yes", "start_date": "2020", "manufacturer": "MHI Vestas", "rotor:diameter": "164", "height": "85"}, {"ID": "7492546887", "WGS84Latitude": 51.7036299, "WGS84Longitude": 2.7537059, "Source": "wind_offshore", "Power": "9.5 MW", "generator:source": "wind", "generator:type": "horizontal_axis", "manufacturer:type": "Offshore V164-9.5 MW", "offshore": "yes", "start_date": "2020", "manufacturer": "MHI Vestas", "rotor:diameter": "164", "height": "85"}, {"ID": "7492546888", "WGS84Latitude": 51.689167, "WGS84Longitude": 2.769833, "Source": "wind_offshore", "Name": "NW2 A01", "Power": "9.5 MW", "generator:source": "wind", "generator:type": "horizontal_axis", "manufacturer:type": "Offshore V164-9.5 MW", "offshore": "yes", "start_date": "2020", "manufacturer": "MHI Vestas", "rotor:diameter": "164", "height": "85"}, {"ID": "7492546889", "WGS84Latitude": 51.658333, "WGS84Longitude": 2.751167, "Source": "wind_offshore", "Name": "NW2 F04", "Power": "9.5 MW", "generator:source": "wind", "generator:type": "horizontal_axis", "manufacturer:type": "Offshore V164-9.5 MW", "offshore": "yes", "start_date": "2020", "manufacturer": "MHI Vestas", "rotor:diameter": "164", "height": "85"}, {"ID": "227010392", "WGS84Latitude": 50.4387809, "WGS84Longitude": 6.0388966, "Source": "hydro_water_reservoir", "Name": "Centrale de B\u00e9verc\u00e9", "Power": "9.2 MW", "generator:source": "hydro", "url": "http://globalenergyobservatory.org/geoid/42009", "generator:type": "francis_turbine", "generator:plant": "output", "ref": "E72", "building": "yes", "addr:city": "B\u00e9verc\u00e9", "operator": "ELIA"}, {"ID": "182944051", "WGS84Latitude": 50.4389513, "WGS84Longitude": 6.0387438, "Source": "hydro_run-of-river", "Name": "Centrale de B\u00e9verc\u00e9", "Power": "9.2 MW", "landuse": "industrial", "start_date": "1928", "operator": "ELIA"}, {"ID": "12524236", "WGS84Latitude": 51.097781, "WGS84Longitude": 5.0889695, "Source": "wind_onshore", "Name": "parc \u00e9olien Nike de Laakdal", "Power": "9 MW", "plant:source": "wind", "site": "wind_farm", "wikidata": "Q1990107"}, {"ID": "6000767315", "WGS84Latitude": 51.5984393, "WGS84Longitude": 2.9528102, "Source": "wind_offshore", "Power": "7 MW", "generator:source": "wind", "generator:type": "horizontal_axis", "manufacturer": "Siemens D7", "rotor:diameter": "154"}, {"ID": "6000767316", "WGS84Latitude": 51.589383, "WGS84Longitude": 2.9686466, "Source": "wind_offshore", "Power": "7 MW", "generator:source": "wind", "generator:type": "horizontal_axis", "manufacturer": "Siemens D7", "rotor:diameter": "154"}, {"ID": "6000767317", "WGS84Latitude": 51.585343, "WGS84Longitude": 2.9763027, "Source": "wind_offshore", "Power": "7 MW", "generator:source": "wind", "generator:type": "horizontal_axis", "manufacturer": "Siemens D7", "rotor:diameter": "154"}, {"ID": "6000767318", "WGS84Latitude": 51.580333, "WGS84Longitude": 2.964667, "Source": "wind_offshore", "Name": "R D6", "Power": "7 MW", "generator:source": "wind", "generator:type": "horizontal_axis", "manufacturer": "Siemens D7", "rotor:diameter": "154"}, {"ID": "6000767319", "WGS84Latitude": 51.5846261, "WGS84Longitude": 2.9577394, "Source": "wind_offshore", "Power": "7 MW", "generator:source": "wind", "generator:type": "horizontal_axis", "manufacturer": "Siemens D7", "rotor:diameter": "154"}, {"ID": "6000767320", "WGS84Latitude": 51.5888617, "WGS84Longitude": 2.9503981, "Source": "wind_offshore", "Power": "7 MW", "generator:source": "wind", "generator:type": "horizontal_axis", "manufacturer": "Siemens D7", "rotor:diameter": "154"}, {"ID": "6000767313", "WGS84Latitude": 51.6130948, "WGS84Longitude": 2.9465176, "Source": "wind_offshore", "Power": "7 MW", "generator:source": "wind", "generator:type": "horizontal_axis", "manufacturer": "Siemens D7", "rotor:diameter": "154"}, {"ID": "6000767321", "WGS84Latitude": 51.5936182, "WGS84Longitude": 2.941903, "Source": "wind_offshore", "Power": "7 MW", "generator:source": "wind", "generator:type": "horizontal_axis", "manufacturer": "Siemens D7", "rotor:diameter": "154"}, {"ID": "6000767322", "WGS84Latitude": 51.5983741, "WGS84Longitude": 2.9345616, "Source": "wind_offshore", "Power": "7 MW", "generator:source": "wind", "generator:type": "horizontal_axis", "manufacturer": "Siemens D7", "rotor:diameter": "154"}, {"ID": "6000767323", "WGS84Latitude": 51.603167, "WGS84Longitude": 2.924833, "Source": "wind_offshore", "Power": "7 MW", "generator:source": "wind", "generator:type": "horizontal_axis", "manufacturer": "Siemens D7", "rotor:diameter": "154"}, {"ID": "6000767324", "WGS84Latitude": 51.5984393, "WGS84Longitude": 2.9142155, "Source": "wind_offshore", "Power": "7 MW", "generator:source": "wind", "generator:type": "horizontal_axis", "manufacturer": "Siemens D7", "rotor:diameter": "154"}, {"ID": "6000767325", "WGS84Latitude": 51.5947909, "WGS84Longitude": 2.922291, "Source": "wind_offshore", "Power": "7 MW", "generator:source": "wind", "generator:type": "horizontal_axis", "manufacturer": "Siemens D7", "rotor:diameter": "154"}, {"ID": "6000767314", "WGS84Latitude": 51.6074286, "WGS84Longitude": 2.9365543, "Source": "wind_offshore", "Power": "7 MW", "generator:source": "wind", "generator:type": "horizontal_axis", "manufacturer": "Siemens D7", "rotor:diameter": "154"}, {"ID": "6000767308", "WGS84Latitude": 51.5915, "WGS84Longitude": 3.001, "Source": "wind_offshore", "Power": "7 MW", "generator:source": "wind", "generator:type": "horizontal_axis", "manufacturer": "Siemens D7", "rotor:diameter": "154"}, {"ID": "6000767312", "WGS84Latitude": 51.6094477, "WGS84Longitude": 2.9535444, "Source": "wind_offshore", "Power": "7 MW", "generator:source": "wind", "generator:type": "horizontal_axis", "manufacturer": "Siemens D7", "rotor:diameter": "154"}, {"ID": "6000767311", "WGS84Latitude": 51.5974621, "WGS84Longitude": 2.9747295, "Source": "wind_offshore", "Power": "7 MW", "generator:source": "wind", "generator:type": "horizontal_axis", "manufacturer": "Siemens D7", "rotor:diameter": "154"}, {"ID": "6000767310", "WGS84Latitude": 51.5927712, "WGS84Longitude": 2.9816514, "Source": "wind_offshore", "Power": "7 MW", "generator:source": "wind", "generator:type": "horizontal_axis", "manufacturer": "Siemens D7", "rotor:diameter": "154"}, {"ID": "6000767309", "WGS84Latitude": 51.5883405, "WGS84Longitude": 2.9880489, "Source": "wind_offshore", "Power": "7 MW", "generator:source": "wind", "generator:type": "horizontal_axis", "manufacturer": "Siemens D7", "rotor:diameter": "154"}, {"ID": "6000767307", "WGS84Latitude": 51.5950515, "WGS84Longitude": 2.9959147, "Source": "wind_offshore", "Power": "7 MW", "generator:source": "wind", "generator:type": "horizontal_axis", "manufacturer": "Siemens D7", "rotor:diameter": "154"}, {"ID": "6000767306", "WGS84Latitude": 51.5986347, "WGS84Longitude": 2.987944, "Source": "wind_offshore", "Power": "7 MW", "generator:source": "wind", "generator:type": "horizontal_axis", "manufacturer": "Siemens D7", "rotor:diameter": "154"}, {"ID": "6000767305", "WGS84Latitude": 51.603167, "WGS84Longitude": 2.9815, "Source": "wind_offshore", "Power": "7 MW", "generator:source": "wind", "generator:type": "horizontal_axis", "manufacturer": "Siemens D7", "rotor:diameter": "154"}, {"ID": "6000767304", "WGS84Latitude": 51.6068424, "WGS84Longitude": 2.9757783, "Source": "wind_offshore", "Power": "7 MW", "generator:source": "wind", "generator:type": "horizontal_axis", "manufacturer": "Siemens D7", "rotor:diameter": "154"}, {"ID": "6000767303", "WGS84Latitude": 51.6109456, "WGS84Longitude": 2.9693808, "Source": "wind_offshore", "Power": "7 MW", "generator:source": "wind", "generator:type": "horizontal_axis", "manufacturer": "Siemens D7", "rotor:diameter": "154"}, {"ID": "6000767302", "WGS84Latitude": 51.6139414, "WGS84Longitude": 2.9624589, "Source": "wind_offshore", "Power": "7 MW", "generator:source": "wind", "generator:type": "horizontal_axis", "manufacturer": "Siemens D7", "rotor:diameter": "154"}, {"ID": "6000767301", "WGS84Latitude": 51.618167, "WGS84Longitude": 2.955167, "Source": "wind_offshore", "Power": "7 MW", "generator:source": "wind", "generator:type": "horizontal_axis", "manufacturer": "Siemens D7", "rotor:diameter": "154"}, {"ID": "905051730", "WGS84Latitude": 50.4919396, "WGS84Longitude": 5.0697598, "Source": "hydro_run-of-river", "Name": "Centrale hyroelectrique d'Andenne", "Power": "7 MW", "plant:source": "hydro", "operator:wikidata": "Q1837429", "operator:wikipedia": "fr:Luminus", "landuse": "industrial", "source": "https://www.luminus.be/fr/corporate/production-d-energie/numero-1-en-hydroelectricite/", "building": "yes", "operator": "Luminus"}, {"ID": "6000767327", "WGS84Latitude": 51.5787608, "WGS84Longitude": 2.9488249, "Source": "wind_offshore", "Power": "7 MW", "generator:source": "wind", "generator:type": "horizontal_axis", "manufacturer": "Siemens D7", "rotor:diameter": "154"}, {"ID": "6000767326", "WGS84Latitude": 51.5904256, "WGS84Longitude": 2.9284788, "Source": "wind_offshore", "Power": "7 MW", "generator:source": "wind", "generator:type": "horizontal_axis", "manufacturer": "Siemens D7", "rotor:diameter": "154"}, {"ID": "6000767329", "WGS84Latitude": 51.5693747, "WGS84Longitude": 2.9481956, "Source": "wind_offshore", "Power": "7 MW", "generator:source": "wind", "generator:type": "horizontal_axis", "manufacturer": "Siemens D7", "rotor:diameter": "154"}, {"ID": "6000767328", "WGS84Latitude": 51.5743939, "WGS84Longitude": 2.9564809, "Source": "wind_offshore", "Power": "7 MW", "generator:source": "wind", "generator:type": "horizontal_axis", "manufacturer": "Siemens D7", "rotor:diameter": "154"}, {"ID": "6000767337", "WGS84Latitude": 51.5858643, "WGS84Longitude": 2.898484, "Source": "wind_offshore", "Power": "7 MW", "generator:source": "wind", "generator:type": "horizontal_axis", "manufacturer": "Siemens D7", "rotor:diameter": "154"}, {"ID": "6000767330", "WGS84Latitude": 51.5730251, "WGS84Longitude": 2.9401201, "Source": "wind_offshore", "Power": "7 MW", "generator:source": "wind", "generator:type": "horizontal_axis", "manufacturer": "Siemens D7", "rotor:diameter": "154"}, {"ID": "6000767342", "WGS84Latitude": 51.564, "WGS84Longitude": 2.9385, "Source": "wind_offshore", "Power": "7 MW", "generator:source": "wind", "generator:type": "horizontal_axis", "manufacturer": "Siemens D7", "rotor:diameter": "154"}, {"ID": "6000767340", "WGS84Latitude": 51.5721125, "WGS84Longitude": 2.9219764, "Source": "wind_offshore", "Power": "7 MW", "generator:source": "wind", "generator:type": "horizontal_axis", "manufacturer": "Siemens D7", "rotor:diameter": "154"}, {"ID": "6000767339", "WGS84Latitude": 51.577, "WGS84Longitude": 2.9135, "Source": "wind_offshore", "Power": "7 MW", "generator:source": "wind", "generator:type": "horizontal_axis", "manufacturer": "Siemens D7", "rotor:diameter": "154"}, {"ID": "6000767338", "WGS84Latitude": 51.5813677, "WGS84Longitude": 2.9062449, "Source": "wind_offshore", "Power": "7 MW", "generator:source": "wind", "generator:type": "horizontal_axis", "manufacturer": "Siemens D7", "rotor:diameter": "154"}, {"ID": "6000767341", "WGS84Latitude": 51.5681361, "WGS84Longitude": 2.9307861, "Source": "wind_offshore", "Power": "7 MW", "generator:source": "wind", "generator:type": "horizontal_axis", "manufacturer": "Siemens D7", "rotor:diameter": "154"}, {"ID": "6000767336", "WGS84Latitude": 51.590833, "WGS84Longitude": 2.890667, "Source": "wind_offshore", "Power": "7 MW", "generator:source": "wind", "generator:type": "horizontal_axis", "manufacturer": "Siemens D7", "rotor:diameter": "154"}, {"ID": "6000767335", "WGS84Latitude": 51.5951818, "WGS84Longitude": 2.901001, "Source": "wind_offshore", "Power": "7 MW", "generator:source": "wind", "generator:type": "horizontal_axis", "manufacturer": "Siemens D7", "rotor:diameter": "154"}, {"ID": "6000767334", "WGS84Latitude": 51.5908165, "WGS84Longitude": 2.9085522, "Source": "wind_offshore", "Power": "7 MW", "generator:source": "wind", "generator:type": "horizontal_axis", "manufacturer": "Siemens D7", "rotor:diameter": "154"}, {"ID": "6000767333", "WGS84Latitude": 51.5863204, "WGS84Longitude": 2.9171521, "Source": "wind_offshore", "Power": "7 MW", "generator:source": "wind", "generator:type": "horizontal_axis", "manufacturer": "Siemens D7", "rotor:diameter": "154"}, {"ID": "6000767332", "WGS84Latitude": 51.5818891, "WGS84Longitude": 2.9242837, "Source": "wind_offshore", "Power": "7 MW", "generator:source": "wind", "generator:type": "horizontal_axis", "manufacturer": "Siemens D7", "rotor:diameter": "154"}, {"ID": "6000767331", "WGS84Latitude": 51.5775225, "WGS84Longitude": 2.9322543, "Source": "wind_offshore", "Power": "7 MW", "generator:source": "wind", "generator:type": "horizontal_axis", "manufacturer": "Siemens D7", "rotor:diameter": "154"}, {"ID": "6000767378", "WGS84Latitude": 51.5380085, "WGS84Longitude": 2.8999522, "Source": "wind_offshore", "Power": "6.15 MW", "generator:model": "Senvion 6M", "generator:source": "wind", "generator:type": "horizontal_axis"}, {"ID": "6000767366", "WGS84Latitude": 51.5287444, "WGS84Longitude": 2.9329885, "Source": "wind_offshore", "Power": "6.15 MW", "generator:model": "Senvion 6M", "generator:source": "wind", "generator:type": "horizontal_axis"}, {"ID": "6000767367", "WGS84Latitude": 51.52496, "WGS84Longitude": 2.9219764, "Source": "wind_offshore", "Power": "6.15 MW", "generator:model": "Senvion 6M", "generator:source": "wind", "generator:type": "horizontal_axis"}, {"ID": "6000767370", "WGS84Latitude": 51.5372909, "WGS84Longitude": 2.9351909, "Source": "wind_offshore", "Power": "6.15 MW", "generator:model": "Senvion 6M", "generator:source": "wind", "generator:type": "horizontal_axis"}, {"ID": "6000767371", "WGS84Latitude": 51.53292, "WGS84Longitude": 2.9251227, "Source": "wind_offshore", "Power": "6.15 MW", "generator:model": "Senvion 6M", "generator:source": "wind", "generator:type": "horizontal_axis"}, {"ID": "6000767372", "WGS84Latitude": 51.5292012, "WGS84Longitude": 2.9140058, "Source": "wind_offshore", "Power": "6.15 MW", "generator:model": "Senvion 6M", "generator:source": "wind", "generator:type": "horizontal_axis"}, {"ID": "6000767373", "WGS84Latitude": 51.5413352, "WGS84Longitude": 2.9271154, "Source": "wind_offshore", "Power": "6.15 MW", "generator:model": "Senvion 6M", "generator:source": "wind", "generator:type": "horizontal_axis"}, {"ID": "6000767374", "WGS84Latitude": 51.5373561, "WGS84Longitude": 2.9169423, "Source": "wind_offshore", "Power": "6.15 MW", "generator:model": "Senvion 6M", "generator:source": "wind", "generator:type": "horizontal_axis"}, {"ID": "6000767376", "WGS84Latitude": 51.5450531, "WGS84Longitude": 2.9191447, "Source": "wind_offshore", "Power": "6.15 MW", "generator:model": "Senvion 6M", "generator:source": "wind", "generator:type": "horizontal_axis"}, {"ID": "6000767377", "WGS84Latitude": 51.5415309, "WGS84Longitude": 2.9094961, "Source": "wind_offshore", "Power": "6.15 MW", "generator:model": "Senvion 6M", "generator:source": "wind", "generator:type": "horizontal_axis"}, {"ID": "2650008952", "WGS84Latitude": 51.5588333, "WGS84Longitude": 2.9535, "Source": "wind_offshore", "Power": "6.15 MW", "generator:model": "Senvion 6M", "source": "Vlaamse Hydrografie, BaZ 2012-23/342;LIST OF CORRECTIONS"}, {"ID": "6000767379", "WGS84Latitude": 51.5541182, "WGS84Longitude": 2.9164179, "Source": "wind_offshore", "Power": "6.15 MW", "generator:model": "Senvion 6M", "generator:source": "wind", "generator:type": "horizontal_axis"}, {"ID": "2650008946", "WGS84Latitude": 51.5448333, "WGS84Longitude": 2.9785, "Source": "wind_offshore", "Power": "6.15 MW", "generator:model": "Senvion 6M", "source": "Vlaamse Hydrografie, BaZ 2012-23/342;LIST OF CORRECTIONS"}, {"ID": "6000767380", "WGS84Latitude": 51.5492272, "WGS84Longitude": 2.9108595, "Source": "wind_offshore", "Power": "6.15 MW", "generator:model": "Senvion 6M", "generator:source": "wind", "generator:type": "horizontal_axis"}, {"ID": "6000767381", "WGS84Latitude": 51.5457053, "WGS84Longitude": 2.9015254, "Source": "wind_offshore", "Power": "6.15 MW", "generator:model": "Senvion 6M", "generator:source": "wind", "generator:type": "horizontal_axis"}, {"ID": "6000767382", "WGS84Latitude": 51.5423136, "WGS84Longitude": 2.892506, "Source": "wind_offshore", "Power": "6.15 MW", "generator:model": "Senvion 6M", "generator:source": "wind", "generator:type": "horizontal_axis"}, {"ID": "6000767383", "WGS84Latitude": 51.5537269, "WGS84Longitude": 2.901001, "Source": "wind_offshore", "Power": "6.15 MW", "generator:model": "Senvion 6M", "generator:source": "wind", "generator:type": "horizontal_axis"}, {"ID": "6000767362", "WGS84Latitude": 51.5245685, "WGS84Longitude": 2.9403299, "Source": "wind_offshore", "Power": "6.15 MW", "generator:model": "Senvion 6M", "generator:source": "wind", "generator:type": "horizontal_axis"}, {"ID": "2650008953", "WGS84Latitude": 51.564, "WGS84Longitude": 3.0161667, "Source": "wind_offshore", "Power": "6.15 MW", "generator:model": "Senvion 6M", "source": "Vlaamse Hydrografie, BaZ 2012-23/342;LIST OF CORRECTIONS"}, {"ID": "2650008955", "WGS84Latitude": 51.5773333, "WGS84Longitude": 3.01, "Source": "wind_offshore", "Power": "6.15 MW", "generator:model": "Senvion 6M", "source": "Vlaamse Hydrografie, BaZ 2012-23/342"}, {"ID": "6000767384", "WGS84Latitude": 51.5499445, "WGS84Longitude": 2.8930304, "Source": "wind_offshore", "Power": "6.15 MW", "generator:model": "Senvion 6M", "generator:source": "wind", "generator:type": "horizontal_axis"}, {"ID": "2650008956", "WGS84Latitude": 51.5783696, "WGS84Longitude": 2.990796, "Source": "wind_offshore", "Power": "6.15 MW", "generator:model": "Senvion 6M", "source": "Vlaamse Hydrografie, BaZ 2012-23/342"}, {"ID": "6000767365", "WGS84Latitude": 51.5333115, "WGS84Longitude": 2.9433713, "Source": "wind_offshore", "Power": "6.15 MW", "generator:model": "Senvion 6M", "generator:source": "wind", "generator:type": "horizontal_axis"}, {"ID": "2650008948", "WGS84Latitude": 51.5466667, "WGS84Longitude": 2.885, "Source": "wind_offshore", "Power": "6.15 MW", "generator:model": "Senvion 6M", "generator:source": "wind", "generator:type": "horizontal_axis", "source": "Vlaamse Hydrografie, BaZ 2012-23/342;LIST OF CORRECTIONS"}, {"ID": "6000767361", "WGS84Latitude": 51.5290054, "WGS84Longitude": 2.951342, "Source": "wind_offshore", "Power": "6.15 MW", "generator:model": "Senvion 6M", "generator:source": "wind", "generator:type": "horizontal_axis"}, {"ID": "6000767353", "WGS84Latitude": 51.5696355, "WGS84Longitude": 2.9702198, "Source": "wind_offshore", "Power": "6.15 MW", "generator:model": "Senvion 6M", "generator:source": "wind", "generator:type": "horizontal_axis"}, {"ID": "6000767343", "WGS84Latitude": 51.547988, "WGS84Longitude": 2.9729466, "Source": "wind_offshore", "Power": "6.15 MW", "generator:model": "Senvion 6M", "generator:source": "wind", "generator:type": "horizontal_axis"}, {"ID": "6000767344", "WGS84Latitude": 51.5516401, "WGS84Longitude": 2.9668637, "Source": "wind_offshore", "Power": "6.15 MW", "generator:model": "Senvion 6M", "generator:source": "wind", "generator:type": "horizontal_axis"}, {"ID": "6000767345", "WGS84Latitude": 51.5551615, "WGS84Longitude": 2.9600467, "Source": "wind_offshore", "Power": "6.15 MW", "generator:model": "Senvion 6M", "generator:source": "wind", "generator:type": "horizontal_axis"}, {"ID": "6000767346", "WGS84Latitude": 51.5638334, "WGS84Longitude": 2.9629833, "Source": "wind_offshore", "Power": "6.15 MW", "generator:model": "Senvion 6M", "generator:source": "wind", "generator:type": "horizontal_axis"}, {"ID": "6000767347", "WGS84Latitude": 51.5593347, "WGS84Longitude": 2.9715832, "Source": "wind_offshore", "Power": "6.15 MW", "generator:model": "Senvion 6M", "generator:source": "wind", "generator:type": "horizontal_axis"}, {"ID": "6000767348", "WGS84Latitude": 51.5545746, "WGS84Longitude": 2.9795538, "Source": "wind_offshore", "Power": "6.15 MW", "generator:model": "Senvion 6M", "generator:source": "wind", "generator:type": "horizontal_axis"}, {"ID": "6000767349", "WGS84Latitude": 51.5498141, "WGS84Longitude": 2.9876294, "Source": "wind_offshore", "Power": "6.15 MW", "generator:model": "Senvion 6M", "generator:source": "wind", "generator:type": "horizontal_axis"}, {"ID": "6000767351", "WGS84Latitude": 51.5601171, "WGS84Longitude": 2.9874196, "Source": "wind_offshore", "Power": "6.15 MW", "generator:model": "Senvion 6M", "generator:source": "wind", "generator:type": "horizontal_axis"}, {"ID": "6000767352", "WGS84Latitude": 51.5648765, "WGS84Longitude": 2.9790295, "Source": "wind_offshore", "Power": "6.15 MW", "generator:model": "Senvion 6M", "generator:source": "wind", "generator:type": "horizontal_axis"}, {"ID": "6000767354", "WGS84Latitude": 51.5745895, "WGS84Longitude": 2.9799734, "Source": "wind_offshore", "Power": "6.15 MW", "generator:model": "Senvion 6M", "generator:source": "wind", "generator:type": "horizontal_axis"}, {"ID": "6000767360", "WGS84Latitude": 51.5747198, "WGS84Longitude": 2.9970683, "Source": "wind_offshore", "Power": "6.15 MW", "generator:model": "Senvion 6M", "generator:source": "wind", "generator:type": "horizontal_axis"}, {"ID": "6000767355", "WGS84Latitude": 51.569831, "WGS84Longitude": 2.9885733, "Source": "wind_offshore", "Power": "6.15 MW", "generator:model": "Senvion 6M", "generator:source": "wind", "generator:type": "horizontal_axis"}, {"ID": "6000767356", "WGS84Latitude": 51.5650069, "WGS84Longitude": 2.9967537, "Source": "wind_offshore", "Power": "6.15 MW", "generator:model": "Senvion 6M", "generator:source": "wind", "generator:type": "horizontal_axis"}, {"ID": "6000767357", "WGS84Latitude": 51.5603127, "WGS84Longitude": 3.0053536, "Source": "wind_offshore", "Power": "6.15 MW", "generator:model": "Senvion 6M", "generator:source": "wind", "generator:type": "horizontal_axis"}, {"ID": "6000767358", "WGS84Latitude": 51.5672235, "WGS84Longitude": 3.0102828, "Source": "wind_offshore", "Power": "6.15 MW", "generator:model": "Senvion 6M", "generator:source": "wind", "generator:type": "horizontal_axis"}, {"ID": "2650008951", "WGS84Latitude": 51.5573333, "WGS84Longitude": 2.9083333, "Source": "wind_offshore", "Power": "6.15 MW", "generator:model": "Senvion 6M", "generator:source": "wind", "generator:type": "horizontal_axis", "source": "Vlaamse Hydrografie, BaZ 2012-23/342"}, {"ID": "2650008944", "WGS84Latitude": 51.5343333, "WGS84Longitude": 2.9605, "Source": "wind_offshore", "Power": "6.15 MW", "generator:model": "Senvion 6M", "generator:source": "wind", "generator:type": "horizontal_axis", "source": "Vlaamse Hydrografie, BaZ 2012-23/342"}, {"ID": "2650008943", "WGS84Latitude": 51.5338333, "WGS84Longitude": 2.9066667, "Source": "wind_offshore", "Power": "6.15 MW", "generator:model": "Senvion 6M", "generator:source": "wind", "generator:type": "horizontal_axis", "source": "Vlaamse Hydrografie, BaZ 2012-23/342"}, {"ID": "2650008942", "WGS84Latitude": 51.5208333, "WGS84Longitude": 2.9281667, "Source": "wind_offshore", "Power": "6.15 MW", "generator:model": "Senvion 6M", "generator:source": "wind", "generator:type": "horizontal_axis", "source": "Vlaamse Hydrografie, BaZ 2012-23/342"}, {"ID": "6000767359", "WGS84Latitude": 51.5711348, "WGS84Longitude": 3.0037804, "Source": "wind_offshore", "Power": "6.15 MW", "generator:model": "Senvion 6M", "generator:source": "wind", "generator:type": "horizontal_axis"}, {"ID": "6000767350", "WGS84Latitude": 51.5554875, "WGS84Longitude": 2.9956, "Source": "wind_offshore", "Power": "6.15 MW", "generator:model": "Senvion 6M", "generator:source": "wind", "generator:type": "horizontal_axis"}, {"ID": "2650008957", "WGS84Latitude": 51.581, "WGS84Longitude": 3.0035, "Source": "wind_offshore", "Power": "6.15 MW", "generator:model": "Senvion 6M", "source": "Vlaamse Hydrografie, BaZ 2012-23/342;LIST OF CORRECTIONS"}, {"ID": "4179579745", "WGS84Latitude": 51.6883333, "WGS84Longitude": 2.8365, "Source": "wind_offshore", "Power": "6 MW", "generator:model": "Alstom Haliade 150", "generator:source": "wind", "generator:type": "horizontal_axis", "source": "MDK - Afdeling KUST - Vlaamse Hydrografie: http://www.afdelingkust.be/sites/default/files/atoms/files/baz201711_151-168_EN.pdf(2017-11/158)", "offshore": "yes", "description": "Alstom direct drive test turbine"}, {"ID": "6000767369", "WGS84Latitude": 51.5423136, "WGS84Longitude": 2.9422177, "Source": "wind_offshore", "Power": "5 MW", "generator:model": "Senvion 5M", "generator:source": "wind", "generator:type": "horizontal_axis"}, {"ID": "6000767363", "WGS84Latitude": 51.5372257, "WGS84Longitude": 2.9539639, "Source": "wind_offshore", "Power": "5 MW", "generator:model": "Senvion 5M", "generator:source": "wind", "generator:type": "horizontal_axis"}, {"ID": "6000767364", "WGS84Latitude": 51.5400306, "WGS84Longitude": 2.9481956, "Source": "wind_offshore", "Power": "5 MW", "generator:model": "Senvion 5M", "generator:source": "wind", "generator:type": "horizontal_axis"}, {"ID": "223152441", "WGS84Latitude": 50.4658868, "WGS84Longitude": 4.8992861, "Source": "hydro_run-of-river", "Name": "Centrale des Grands Malades", "Power": "5 MW", "plant:source": "hydro", "landuse": "industrial", "source": "https://www.luminus.be/fr/corporate/production-d-energie/numero-1-en-hydroelectricite/", "building": "yes", "operator": "Luminus"}, {"ID": "6000767368", "WGS84Latitude": 51.5477924, "WGS84Longitude": 2.9306812, "Source": "wind_offshore", "Power": "5 MW", "generator:model": "Senvion 5M", "generator:source": "wind", "generator:type": "horizontal_axis"}, {"ID": "2650008947", "WGS84Latitude": 51.5453333, "WGS84Longitude": 2.9355, "Source": "wind_offshore", "Power": "5 MW", "generator:model": "Senvion 5M", "generator:source": "wind", "generator:type": "horizontal_axis", "source": "Vlaamse Hydrografie, BaZ 2012-23/342"}, {"ID": "6000767375", "WGS84Latitude": 51.5507271, "WGS84Longitude": 2.9244935, "Source": "wind_offshore", "Power": "5 MW", "generator:model": "Senvion 5M", "generator:source": "wind", "generator:type": "horizontal_axis"}, {"ID": "670415000", "WGS84Latitude": 50.6989865, "WGS84Longitude": 3.8575215, "Source": "solar", "Power": "4.6 MW", "generator:source": "solar", "generator:type": "solar_photovoltaic_panel", "operator": "CUP ( Carri\u00e8res Unies de Porphyre )"}, {"ID": "9778624547", "WGS84Latitude": 51.071685, "WGS84Longitude": 3.9627336, "Source": "wind_onshore", "Power": "4.5 MW", "generator:source": "wind", "generator:type": "horizontal_axis", "operator": "Storm"}, {"ID": "8660767780", "WGS84Latitude": 51.4529412, "WGS84Longitude": 4.7122774, "Source": "wind_onshore", "Power": "4.2 MW", "generator:source": "wind", "generator:type": "horizontal_axis", "manufacturer:type": "V136-4.2MW", "description": "under construction", "manufacturer": "Vestas", "height:hub": "112"}, {"ID": "9897761130", "WGS84Latitude": 51.2829568, "WGS84Longitude": 4.2217068, "Source": "wind_onshore", "Power": "4.2 MW", "generator:source": "wind", "generator:type": "horizontal_axis", "manufacturer:type": "E-115 EP3 E3", "manufacturer": "Enercon", "height:hub": "135"}, {"ID": "9897649759", "WGS84Latitude": 51.2464682, "WGS84Longitude": 4.3053415, "Source": "wind_onshore", "Power": "4.2 MW", "generator:source": "wind", "generator:type": "horizontal_axis", "manufacturer:type": "E-115 EP3 E3", "manufacturer": "Enercon"}, {"ID": "7996674149", "WGS84Latitude": 51.079465, "WGS84Longitude": 5.1716398, "Source": "wind_onshore", "Name": "SWT-DD-142", "Power": "4.1 MW", "generator:source": "wind", "generator:type": "horizontal_axis", "ele": "-", "manufacturer": "Siemens Gamesa Renewable Energy S.A.", "height": "200", "operator": "-"}, {"ID": "8691002919", "WGS84Latitude": 51.2380602, "WGS84Longitude": 5.4033706, "Source": "wind_onshore", "Name": "SG-5.0-145", "Power": "4 MW", "generator:source": "wind", "generator:type": "horizontal_axis", "ele": "40", "manufacturer": "Siemens Gamesa Renewable Energy S.A.", "height:hub": "95.5", "rotor:diameter": "145", "height": "-"}, {"ID": "9492606644", "WGS84Latitude": 51.2763995, "WGS84Longitude": 4.3330319, "Source": "wind_onshore", "Power": "4 MW", "generator:source": "wind", "generator:type": "horizontal_axis", "manufacturer:type": "E-126 EP3", "start_date": "2021", "manufacturer": "Enercon", "height:hub": "135"}, {"ID": "8653802031", "WGS84Latitude": 51.2576924, "WGS84Longitude": 4.4105626, "Source": "wind_onshore", "Power": "4 MW", "generator:source": "wind", "generator:type": "horizontal_axis", "manufacturer:type": "E-126 EP3", "start_date": "2021", "manufacturer": "Enercon", "height:hub": "135", "operator": "VLEEMO"}, {"ID": "9897714991", "WGS84Latitude": 51.2512657, "WGS84Longitude": 4.2321352, "Source": "wind_onshore", "Power": "4 MW", "generator:source": "wind", "generator:type": "horizontal_axis", "manufacturer:type": "E-126 EP3", "manufacturer": "Enercon", "height:hub": "135"}, {"ID": "7924828896", "WGS84Latitude": 51.2529949, "WGS84Longitude": 4.4081576, "Source": "wind_onshore", "Power": "4 MW", "generator:source": "wind", "generator:type": "horizontal_axis", "manufacturer:type": "E-126 EP3", "start_date": "2021", "manufacturer": "Enercon", "operator": "VLEEMO"}, {"ID": "7924828895", "WGS84Latitude": 51.2503907, "WGS84Longitude": 4.4113795, "Source": "wind_onshore", "Power": "4 MW", "generator:source": "wind", "generator:type": "horizontal_axis", "manufacturer:type": "E-126 EP3", "start_date": "2021", "manufacturer": "Enercon", "operator": "VLEEMO"}, {"ID": "7868239970", "WGS84Latitude": 50.9069545, "WGS84Longitude": 4.038936, "Source": "wind_onshore", "Power": "4 MW", "generator:source": "wind", "generator:type": "horizontal_axis"}, {"ID": "8688960255", "WGS84Latitude": 51.238077, "WGS84Longitude": 5.3916595, "Source": "wind_onshore", "Name": "SG-5.0-145", "Power": "4 MW", "generator:source": "wind", "generator:type": "horizontal_axis", "manufacturer:type": "SG-5.0-145", "ele": "40", "manufacturer": "Siemens Gamesa", "height:hub": "95.5", "rotor:diameter": "145", "height": "-", "operator": "Storm"}, {"ID": "8691002918", "WGS84Latitude": 51.2383942, "WGS84Longitude": 5.3971336, "Source": "wind_onshore", "Name": "SG-5.0-145", "Power": "4 MW", "generator:source": "wind", "generator:type": "horizontal_axis", "ele": "40", "manufacturer": "Siemens Gamesa Renewable Energy S.A.", "height:hub": "95.5", "rotor:diameter": "145", "height": "-"}, {"ID": "132192053", "WGS84Latitude": 51.1988199, "WGS84Longitude": 3.0120248, "Source": "solar", "Name": "Zonnepark Verhelst Oudenburg", "Power": "4 MW", "generator:source": "solar", "generator:type": "solar_photovoltaic_panel"}, {"ID": "8632195188", "WGS84Latitude": 51.3042444, "WGS84Longitude": 3.2216745, "Source": "wind_onshore", "Power": "4 MW", "generator:source": "wind", "generator:type": "horizontal_axis", "start_date": "2021", "rotor:diameter": "117 m", "height": "150 m", "operator": "ICO"}, {"ID": "8632195183", "WGS84Latitude": 51.2941156, "WGS84Longitude": 3.2299084, "Source": "wind_onshore", "Power": "4 MW", "generator:source": "wind", "generator:type": "horizontal_axis", "start_date": "2021", "rotor:diameter": "117 m", "height": "150 m", "operator": "ICO"}, {"ID": "8632195182", "WGS84Latitude": 51.2920878, "WGS84Longitude": 3.2315593, "Source": "wind_onshore", "Power": "4 MW", "generator:source": "wind", "generator:type": "horizontal_axis", "start_date": "2021", "rotor:diameter": "117 m", "height": "150 m", "operator": "ICO"}, {"ID": "8632195181", "WGS84Latitude": 51.2900551, "WGS84Longitude": 3.2332128, "Source": "wind_onshore", "Power": "4 MW", "generator:source": "wind", "generator:type": "horizontal_axis", "start_date": "2021", "rotor:diameter": "117 m", "height": "150 m", "operator": "ICO"}, {"ID": "8632195185", "WGS84Latitude": 51.2981624, "WGS84Longitude": 3.2266177, "Source": "wind_onshore", "Power": "4 MW", "generator:source": "wind", "generator:type": "horizontal_axis", "start_date": "2021", "rotor:diameter": "117 m", "height": "150 m", "operator": "ICO"}, {"ID": "8632195186", "WGS84Latitude": 51.300193, "WGS84Longitude": 3.2249636, "Source": "wind_onshore", "Power": "4 MW", "generator:source": "wind", "generator:type": "horizontal_axis", "start_date": "2021", "rotor:diameter": "117 m", "height": "150 m", "operator": "ICO"}, {"ID": "8632195187", "WGS84Latitude": 51.3022174, "WGS84Longitude": 3.2233123, "Source": "wind_onshore", "Power": "4 MW", "generator:source": "wind", "generator:type": "horizontal_axis", "start_date": "2021", "rotor:diameter": "117 m", "height": "150 m", "operator": "ICO"}, {"ID": "8632195184", "WGS84Latitude": 51.2961379, "WGS84Longitude": 3.2282625, "Source": "wind_onshore", "Power": "4 MW", "generator:source": "wind", "generator:type": "horizontal_axis", "start_date": "2021", "rotor:diameter": "117 m", "height": "150 m", "operator": "ICO"}, {"ID": "8632195190", "WGS84Latitude": 51.308292, "WGS84Longitude": 3.2183697, "Source": "wind_onshore", "Power": "4 MW", "generator:source": "wind", "generator:type": "horizontal_axis", "start_date": "2021", "rotor:diameter": "117 m", "height": "150 m", "operator": "ICO"}, {"ID": "8632195189", "WGS84Latitude": 51.3062665, "WGS84Longitude": 3.2200171, "Source": "wind_onshore", "Power": "4 MW", "generator:source": "wind", "generator:type": "horizontal_axis", "start_date": "2021", "rotor:diameter": "117 m", "height": "150 m", "operator": "ICO"}, {"ID": "8632195191", "WGS84Latitude": 51.3103144, "WGS84Longitude": 3.2167152, "Source": "wind_onshore", "Power": "4 MW", "generator:source": "wind", "generator:type": "horizontal_axis", "start_date": "2021", "rotor:diameter": "117 m", "height": "150 m", "operator": "ICO"}, {"ID": "9357607130", "WGS84Latitude": 51.2010183, "WGS84Longitude": 5.2616539, "Source": "wind_onshore", "Power": "3.6 MW", "generator:source": "wind", "generator:type": "wind_turbine", "ref": "Nordex N117", "start_date": "2022", "height": "106", "operator": "Aspiravi"}, {"ID": "9357607128", "WGS84Latitude": 51.2067962, "WGS84Longitude": 5.254738, "Source": "wind_onshore", "Power": "3.6 MW", "generator:source": "wind", "generator:type": "wind_turbine", "ref": "Nordex N117", "start_date": "2022", "height": "106", "operator": "Aspiravi"}, {"ID": "9357607129", "WGS84Latitude": 51.2036807, "WGS84Longitude": 5.2583025, "Source": "wind_onshore", "Power": "3.6 MW", "generator:source": "wind", "generator:type": "wind_turbine", "ref": "Nordex N117", "start_date": "2022", "height": "106", "operator": "Aspiravi"}, {"ID": "9370115688", "WGS84Latitude": 51.2116218, "WGS84Longitude": 5.2390044, "Source": "wind_onshore", "Power": "3.6 MW", "generator:source": "wind", "generator:type": "wind_turbine", "ref": "Nordex N117", "start_date": "2022", "height": "106", "operator": "Lommel Win(d)t"}, {"ID": "9370099390", "WGS84Latitude": 51.2015739, "WGS84Longitude": 5.2499174, "Source": "wind_onshore", "Power": "3.6 MW", "generator:source": "wind", "generator:type": "wind_turbine", "ref": "Nordex N117", "start_date": "2022", "height": "106", "operator": "Lommel Win(d)t"}, {"ID": "9370107924", "WGS84Latitude": 51.2040255, "WGS84Longitude": 5.2446124, "Source": "wind_onshore", "Power": "3.6 MW", "generator:source": "wind", "generator:type": "wind_turbine", "ref": "Nordex N117", "start_date": "2022", "height": "106", "operator": "Lommel Win(d)t"}, {"ID": "9370108808", "WGS84Latitude": 51.2077756, "WGS84Longitude": 5.2370045, "Source": "wind_onshore", "Power": "3.6 MW", "generator:source": "wind", "generator:type": "wind_turbine", "ref": "Nordex N117", "start_date": "2022", "height": "106", "operator": "Lommel Win(d)t"}, {"ID": "9370115689", "WGS84Latitude": 51.2061403, "WGS84Longitude": 5.2404308, "Source": "wind_onshore", "Power": "3.6 MW", "generator:source": "wind", "ref": "Nordex N117", "start_date": "2022", "height": "106", "operator": "Lommel Win(d)t"}, {"ID": "9370115690", "WGS84Latitude": 51.2137475, "WGS84Longitude": 5.248113, "Source": "wind_onshore", "Power": "3.6 MW", "generator:source": "wind", "generator:type": "wind_turbine", "ref": "Nordex N117", "start_date": "2022", "height": "106", "operator": "Lommel Win(d)t"}, {"ID": "9357607125", "WGS84Latitude": 51.2085944, "WGS84Longitude": 5.2615936, "Source": "wind_onshore", "Power": "3.6 MW", "generator:source": "wind", "generator:type": "wind_turbine", "ref": "Nordex N117", "start_date": "2022", "height": "106", "operator": "Aspiravi"}, {"ID": "8087678772", "WGS84Latitude": 51.1512477, "WGS84Longitude": 3.7953204, "Source": "wind_onshore", "Power": "3.6 MW", "generator:source": "wind", "generator:type": "horizontal_axis", "manufacturer": "Senvion", "model": "3.6M140", "rotor:diameter": "140"}, {"ID": "8087677670", "WGS84Latitude": 51.1548514, "WGS84Longitude": 3.8029432, "Source": "wind_onshore", "Power": "3.6 MW", "generator:source": "wind", "generator:type": "horizontal_axis", "manufacturer": "Senvion", "model": "3.6M140", "rotor:diameter": "140"}, {"ID": "897175593", "WGS84Latitude": 51.4858526, "WGS84Longitude": 4.7381185, "Source": "wind_onshore", "Power": "3.6 MW", "generator:source": "wind", "generator:type": "horizontal_axis", "manufacturer:type": "V136-3.6MW", "manufacturer": "Vestas"}, {"ID": "1025685135", "WGS84Latitude": 51.4750017, "WGS84Longitude": 4.7319806, "Source": "wind_onshore", "Power": "3.6 MW", "generator:source": "wind", "generator:type": "horizontal_axis", "manufacturer:type": "V136-3.6MW", "manufacturer": "Vestas"}, {"ID": "1036108657", "WGS84Latitude": 51.215217, "WGS84Longitude": 5.2557575, "Source": "wind_onshore", "Power": "3.6 MW", "generator:source": "wind", "generator:type": "wind_turbine", "ref": "Nordex N117", "start_date": "2022", "height": "106", "operator": "Aspiravi"}, {"ID": "1036108670", "WGS84Latitude": 51.2112916, "WGS84Longitude": 5.2592078, "Source": "wind_onshore", "Power": "3.6 MW", "generator:source": "wind", "generator:type": "wind_turbine", "ref": "Nordex N117", "start_date": "2022", "height": "106", "operator": "Aspiravi"}, {"ID": "8653765254", "WGS84Latitude": 51.2369583, "WGS84Longitude": 4.1949359, "Source": "wind_onshore", "Power": "3.6 MW", "generator:source": "wind", "generator:type": "horizontal_axis", "manufacturer:type": "V136-3.6MW", "manufacturer": "Vestas", "height:hub": "149"}, {"ID": "4717947377", "WGS84Latitude": 51.4664086, "WGS84Longitude": 4.7282079, "Source": "wind_onshore", "Power": "3.6 MW", "generator:source": "wind", "generator:type": "horizontal_axis", "manufacturer:type": "V136-3.6MW", "manufacturer": "Vestas"}, {"ID": "4717947378", "WGS84Latitude": 51.4632679, "WGS84Longitude": 4.7270726, "Source": "wind_onshore", "Power": "3.6 MW", "generator:source": "wind", "generator:type": "horizontal_axis", "manufacturer:type": "V136-3.6MW", "manufacturer": "Vestas"}, {"ID": "7528626494", "WGS84Latitude": 51.4815185, "WGS84Longitude": 4.7353522, "Source": "wind_onshore", "Power": "3.6 MW", "generator:source": "wind", "generator:type": "horizontal_axis", "manufacturer:type": "V136-3.6MW", "manufacturer": "Vestas"}, {"ID": "7104845302", "WGS84Latitude": 51.3174205, "WGS84Longitude": 3.2091109, "Source": "wind_onshore", "Power": "3.6 MW", "operator:wikidata": "Q1341079", "generator:source": "wind", "url": "https://wind.eneco.be/windfarm/zeebruggepepsico/", "generator:type": "horizontal_axis", "start_date": "2019-12", "operator": "Eneco"}, {"ID": "7104845303", "WGS84Latitude": 51.3249976, "WGS84Longitude": 3.2045141, "Source": "wind_onshore", "Power": "3.6 MW", "operator:wikidata": "Q1341079", "generator:source": "wind", "url": "https://wind.eneco.be/windfarm/zeebrugge-visveiling/", "generator:type": "horizontal_axis", "start_date": "2019-12", "operator": "Eneco"}, {"ID": "8211847689", "WGS84Latitude": 51.4712475, "WGS84Longitude": 4.7305052, "Source": "wind_onshore", "Power": "3.6 MW", "generator:source": "wind", "generator:type": "horizontal_axis", "manufacturer:type": "V136-3.6MW", "manufacturer": "Vestas"}, {"ID": "8959069501", "WGS84Latitude": 50.9604879, "WGS84Longitude": 5.0691302, "Source": "wind_onshore", "Power": "3.6 MW", "generator:source": "wind", "generator:type": "horizontal_axis", "operator": "Aspiravi"}, {"ID": "8951667752", "WGS84Latitude": 51.0685099, "WGS84Longitude": 3.9218745, "Source": "wind_onshore", "Power": "3.5 MW", "generator:source": "wind", "generator:type": "horizontal_axis", "manufacturer:type": "E-126 EP3", "manufacturer": "Enercon", "height:hub": "135"}, {"ID": "5105438773", "WGS84Latitude": 50.9864329, "WGS84Longitude": 5.4643641, "Source": "wind_onshore", "Name": "Windturbine Ikea", "Power": "3.5 MW", "generator:source": "wind", "generator:type": "horizontal_axis", "start_date": "2017"}, {"ID": "8645603720", "WGS84Latitude": 51.1250482, "WGS84Longitude": 4.9646997, "Source": "wind_onshore", "Power": "3.45 MW", "generator:source": "wind", "generator:type": "horizontal_axis", "manufacturer:type": "V112-3.45MW", "manufacturer": "Vestas"}, {"ID": "8645603719", "WGS84Latitude": 51.1280637, "WGS84Longitude": 4.9536721, "Source": "wind_onshore", "Power": "3.45 MW", "generator:source": "wind", "generator:type": "horizontal_axis", "manufacturer:type": "V112-3.45MW", "manufacturer": "Vestas"}, {"ID": "8484037001", "WGS84Latitude": 50.5925379, "WGS84Longitude": 5.2519581, "Source": "wind_onshore", "Power": "3.45 MW", "generator:source": "wind", "generator:type": "horizontal_axis", "generator:manufacturer": "Vestas"}, {"ID": "8670206194", "WGS84Latitude": 50.4682692, "WGS84Longitude": 5.3651063, "Source": "wind_onshore", "Power": "3.45 MW", "generator:source": "wind", "generator:type": "horizontal_axis", "manufacturer:type": "V112-3.45MW", "manufacturer": "Vestas", "height:hub": "94"}, {"ID": "8484036832", "WGS84Latitude": 50.5777858, "WGS84Longitude": 5.2294215, "Source": "wind_onshore", "Power": "3.45 MW", "generator:source": "wind", "generator:type": "horizontal_axis", "generator:manufacturer": "Vestas"}, {"ID": "8484036999", "WGS84Latitude": 50.5936118, "WGS84Longitude": 5.2705396, "Source": "wind_onshore", "Power": "3.45 MW", "generator:source": "wind", "generator:type": "horizontal_axis", "generator:manufacturer": "Vestas"}, {"ID": "8484036998", "WGS84Latitude": 50.5939733, "WGS84Longitude": 5.2790496, "Source": "wind_onshore", "Power": "3.45 MW", "generator:source": "wind", "generator:type": "horizontal_axis", "generator:manufacturer": "Vestas"}, {"ID": "8484036997", "WGS84Latitude": 50.5944493, "WGS84Longitude": 5.2977586, "Source": "wind_onshore", "Power": "3.45 MW", "generator:source": "wind", "generator:type": "horizontal_axis", "generator:manufacturer": "Vestas"}, {"ID": "8484036996", "WGS84Latitude": 50.594202, "WGS84Longitude": 5.2885898, "Source": "wind_onshore", "Power": "3.45 MW", "generator:source": "wind", "generator:type": "horizontal_axis", "generator:manufacturer": "Vestas"}, {"ID": "8484036835", "WGS84Latitude": 50.5865962, "WGS84Longitude": 5.2508737, "Source": "wind_onshore", "Power": "3.45 MW", "generator:source": "wind", "generator:manufacturer": "Vestas"}, {"ID": "8484036834", "WGS84Latitude": 50.5868631, "WGS84Longitude": 5.2578094, "Source": "wind_onshore", "Power": "3.45 MW", "generator:source": "wind", "generator:type": "horizontal_axis", "generator:manufacturer": "Vestas"}, {"ID": "8484036833", "WGS84Latitude": 50.5809241, "WGS84Longitude": 5.2380508, "Source": "wind_onshore", "Power": "3.45 MW", "generator:source": "wind", "generator:type": "horizontal_axis", "generator:manufacturer": "Vestas"}, {"ID": "8484036831", "WGS84Latitude": 50.5750895, "WGS84Longitude": 5.222749, "Source": "wind_onshore", "Power": "3.45 MW", "generator:source": "wind", "generator:type": "horizontal_axis", "generator:manufacturer": "Vestas"}, {"ID": "8670206200", "WGS84Latitude": 50.4686657, "WGS84Longitude": 5.3723174, "Source": "wind_onshore", "Power": "3.45 MW", "generator:source": "wind", "generator:type": "horizontal_axis", "manufacturer:type": "V112-3.45MW", "manufacturer": "Vestas", "height:hub": "94"}, {"ID": "8484037002", "WGS84Latitude": 50.5920899, "WGS84Longitude": 5.2447347, "Source": "wind_onshore", "Power": "3.45 MW", "generator:source": "wind", "generator:type": "horizontal_axis", "generator:manufacturer": "Vestas"}, {"ID": "8487290854", "WGS84Latitude": 50.5825138, "WGS84Longitude": 5.253752, "Source": "wind_onshore", "Power": "3.45 MW", "generator:source": "wind", "generator:type": "horizontal_axis", "generator:manufacturer": "Vestas"}, {"ID": "8670206206", "WGS84Latitude": 50.4637376, "WGS84Longitude": 5.3711364, "Source": "wind_onshore", "Power": "3.45 MW", "generator:source": "wind", "generator:type": "horizontal_axis", "manufacturer:type": "V112-3.45MW", "manufacturer": "Vestas", "height:hub": "94"}, {"ID": "8087683151", "WGS84Latitude": 51.1323237, "WGS84Longitude": 3.7980267, "Source": "wind_onshore", "Power": "3.45 MW", "generator:source": "wind", "generator:type": "horizontal_axis", "manufacturer": "Vestas", "model": "V126-3.45 MW", "rotor:diameter": "126", "operator": "Electrabel"}, {"ID": "9340823928", "WGS84Latitude": 50.4647848, "WGS84Longitude": 5.3590858, "Source": "wind_onshore", "Power": "3.45 MW", "generator:source": "wind", "generator:type": "horizontal_axis", "manufacturer:type": "V112-3.45MW", "manufacturer": "Vestas", "height:hub": "94"}, {"ID": "8484037000", "WGS84Latitude": 50.5934494, "WGS84Longitude": 5.2635176, "Source": "wind_onshore", "Power": "3.45 MW", "generator:source": "wind", "generator:type": "horizontal_axis", "generator:manufacturer": "Vestas"}, {"ID": "8024937866", "WGS84Latitude": 51.2192726, "WGS84Longitude": 3.4712799, "Source": "wind_onshore", "Power": "3.45 MW", "generator:source": "wind", "rotor:diameter": "126", "operator": "Electrabel"}, {"ID": "8087693536", "WGS84Latitude": 51.1319812, "WGS84Longitude": 3.7932309, "Source": "wind_onshore", "Power": "3.45 MW", "generator:source": "wind", "generator:type": "horizontal_axis", "manufacturer": "Vestas", "model": "V126-3.45 MW", "rotor:diameter": "126", "operator": "Electrabel"}, {"ID": "8670206191", "WGS84Latitude": 50.4627504, "WGS84Longitude": 5.3621146, "Source": "wind_onshore", "Power": "3.45 MW", "generator:source": "wind", "generator:type": "horizontal_axis", "manufacturer:type": "V112-3.45MW", "manufacturer": "Vestas", "height:hub": "94"}, {"ID": "5113640006", "WGS84Latitude": 50.9458985, "WGS84Longitude": 5.4860438, "Source": "wind_onshore", "Name": "Windturbine Kolenhaven 1", "Power": "3.4 MW", "generator:source": "wind", "generator:type": "horizontal_axis", "height": "150"}, {"ID": "6332900156", "WGS84Latitude": 50.733453, "WGS84Longitude": 4.1974776, "Source": "wind_onshore", "Power": "3.4 MW", "generator:source": "wind", "generator:type": "horizontal_axis", "manufacturer": "Senvion"}, {"ID": "8777372444", "WGS84Latitude": 50.6635419, "WGS84Longitude": 3.757388, "Source": "wind_onshore", "Power": "3.4 MW", "generator:source": "wind", "generator:type": "horizontal_axis", "manufacturer": "Vestas", "height": "150", "operator": "Eoly"}, {"ID": "8777372443", "WGS84Latitude": 50.6623632, "WGS84Longitude": 3.7531718, "Source": "wind_onshore", "Power": "3.4 MW", "generator:source": "wind", "generator:type": "horizontal_axis", "manufacturer": "Vestas", "height": "150", "operator": "Eoly"}, {"ID": "8777372442", "WGS84Latitude": 50.6654999, "WGS84Longitude": 3.7709701, "Source": "wind_onshore", "Power": "3.4 MW", "generator:source": "wind", "generator:type": "horizontal_axis", "manufacturer": "Vestas", "height": "150", "operator": "Eoly"}, {"ID": "6334230833", "WGS84Latitude": 50.5775951, "WGS84Longitude": 4.3033129, "Source": "wind_onshore", "Power": "3.4 MW", "generator:source": "wind", "generator:type": "horizontal_axis", "manufacturer": "Senvion", "height": "150", "operator": "Ventis"}, {"ID": "6334230831", "WGS84Latitude": 50.5717901, "WGS84Longitude": 4.3056037, "Source": "wind_onshore", "Power": "3.4 MW", "generator:source": "wind", "generator:type": "horizontal_axis", "manufacturer": "Senvion", "height": "150", "operator": "Ventis"}, {"ID": "6334230830", "WGS84Latitude": 50.5739814, "WGS84Longitude": 4.30092, "Source": "wind_onshore", "Power": "3.4 MW", "generator:source": "wind", "generator:type": "horizontal_axis", "manufacturer": "Senvion", "height": "150", "operator": "Ventis"}, {"ID": "6332900157", "WGS84Latitude": 50.7315858, "WGS84Longitude": 4.2123159, "Source": "wind_onshore", "Power": "3.4 MW", "generator:source": "wind", "generator:type": "horizontal_axis", "manufacturer": "Senvion"}, {"ID": "5113705620", "WGS84Latitude": 50.9391087, "WGS84Longitude": 5.4984746, "Source": "wind_onshore", "Name": "Windturbine Kolenhaven 3", "Power": "3.4 MW", "generator:source": "wind", "generator:type": "horizontal_axis", "height": "150"}, {"ID": "5858723355", "WGS84Latitude": 50.9541264, "WGS84Longitude": 5.0571325, "Source": "wind_onshore", "Name": "Senvion 3.4M114", "Power": "3.4 MW", "generator:source": "wind", "generator:type": "wind_turbine", "building": "construction", "operator": "Aspiravi"}, {"ID": "5858715825", "WGS84Latitude": 50.9555526, "WGS84Longitude": 4.9959221, "Source": "wind_onshore", "Name": "Senvion 3.4M114", "Power": "3.4 MW", "generator:source": "wind", "generator:type": "wind_turbine", "operator": "Aspiravi"}, {"ID": "5858710612", "WGS84Latitude": 50.9581182, "WGS84Longitude": 4.9842072, "Source": "wind_onshore", "Name": "Senvion 3.4M114", "Power": "3.4 MW", "generator:source": "wind", "generator:type": "wind_turbine", "operator": "Aspiravi"}, {"ID": "5113640005", "WGS84Latitude": 50.9438299, "WGS84Longitude": 5.4889544, "Source": "wind_onshore", "Name": "Windturbine Kolenhaven 2", "Power": "3.4 MW", "generator:source": "wind", "generator:type": "horizontal_axis", "height": "150"}, {"ID": "6000766205", "WGS84Latitude": 51.6371642, "WGS84Longitude": 2.820505, "Source": "wind_offshore", "Power": "3.3 MW", "generator:source": "wind", "generator:type": "horizontal_axis", "manufacturer:type": "V112", "offshore": "yes", "manufacturer": "Vestas"}, {"ID": "4879916750", "WGS84Latitude": 51.653, "WGS84Longitude": 2.766333, "Source": "wind_offshore", "Power": "3.3 MW", "generator:source": "wind", "generator:type": "horizontal_axis", "source": "MDK - Afdeling KUST - Vlaamse Hydrografie: http://www.afdelingkust.be/sites/default/files/atoms/files/baz201711_151-168_EN.pdf(2017-11/158)", "manufacturer:type": "V112", "offshore": "yes", "manufacturer": "Vestas"}, {"ID": "6000766213", "WGS84Latitude": 51.6593959, "WGS84Longitude": 2.8211056, "Source": "wind_offshore", "Power": "3.3 MW", "generator:source": "wind", "generator:type": "horizontal_axis", "manufacturer:type": "V112", "offshore": "yes", "manufacturer": "Vestas"}, {"ID": "6000766212", "WGS84Latitude": 51.6540455, "WGS84Longitude": 2.8176984, "Source": "wind_offshore", "Power": "3.3 MW", "generator:source": "wind", "generator:type": "horizontal_axis", "manufacturer:type": "V112", "offshore": "yes", "manufacturer": "Vestas"}, {"ID": "6000766211", "WGS84Latitude": 51.6495532, "WGS84Longitude": 2.826323, "Source": "wind_offshore", "Power": "3.3 MW", "generator:source": "wind", "generator:type": "horizontal_axis", "manufacturer:type": "V112", "offshore": "yes", "manufacturer": "Vestas"}, {"ID": "6000766210", "WGS84Latitude": 51.6428472, "WGS84Longitude": 2.8249771, "Source": "wind_offshore", "Power": "3.3 MW", "generator:source": "wind", "generator:type": "horizontal_axis", "manufacturer:type": "V112", "offshore": "yes", "manufacturer": "Vestas"}, {"ID": "6000766209", "WGS84Latitude": 51.645523, "WGS84Longitude": 2.8208927, "Source": "wind_offshore", "Power": "3.3 MW", "generator:source": "wind", "generator:type": "horizontal_axis", "manufacturer:type": "V112", "offshore": "yes", "manufacturer": "Vestas"}, {"ID": "6000766208", "WGS84Latitude": 51.6484301, "WGS84Longitude": 2.8145041, "Source": "wind_offshore", "Power": "3.3 MW", "generator:source": "wind", "generator:type": "horizontal_axis", "manufacturer:type": "V112", "offshore": "yes", "manufacturer": "Vestas"}, {"ID": "6000766207", "WGS84Latitude": 51.6426158, "WGS84Longitude": 2.8113098, "Source": "wind_offshore", "Power": "3.3 MW", "generator:source": "wind", "generator:type": "horizontal_axis", "manufacturer:type": "V112", "offshore": "yes", "manufacturer": "Vestas"}, {"ID": "6000766206", "WGS84Latitude": 51.639378, "WGS84Longitude": 2.8167401, "Source": "wind_offshore", "Power": "3.3 MW", "generator:source": "wind", "generator:type": "horizontal_axis", "manufacturer:type": "V112", "offshore": "yes", "manufacturer": "Vestas"}, {"ID": "6000766198", "WGS84Latitude": 51.6251684, "WGS84Longitude": 2.7998103, "Source": "wind_offshore", "Power": "3.3 MW", "generator:source": "wind", "generator:type": "horizontal_axis", "manufacturer:type": "V112", "offshore": "yes", "manufacturer": "Vestas"}, {"ID": "6000766199", "WGS84Latitude": 51.6297292, "WGS84Longitude": 2.7967224, "Source": "wind_offshore", "Power": "3.3 MW", "generator:source": "wind", "generator:type": "horizontal_axis", "manufacturer:type": "V112", "offshore": "yes", "manufacturer": "Vestas"}, {"ID": "6000766196", "WGS84Latitude": 51.6636891, "WGS84Longitude": 2.7732975, "Source": "wind_offshore", "Power": "3.3 MW", "generator:source": "wind", "generator:type": "horizontal_axis", "manufacturer:type": "V112", "offshore": "yes", "manufacturer": "Vestas"}, {"ID": "4879916748", "WGS84Latitude": 51.684833, "WGS84Longitude": 2.785333, "Source": "wind_offshore", "Power": "3.3 MW", "generator:source": "wind", "generator:type": "horizontal_axis", "source": "MDK - Afdeling KUST - Vlaamse Hydrografie: http://www.afdelingkust.be/sites/default/files/atoms/files/baz201711_151-168_EN.pdf(2017-11/158)", "manufacturer:type": "V112", "offshore": "yes", "manufacturer": "Vestas"}, {"ID": "6000766197", "WGS84Latitude": 51.6580749, "WGS84Longitude": 2.7704226, "Source": "wind_offshore", "Power": "3.3 MW", "generator:source": "wind", "generator:type": "horizontal_axis", "manufacturer:type": "V112", "offshore": "yes", "manufacturer": "Vestas"}, {"ID": "6000766204", "WGS84Latitude": 51.6372633, "WGS84Longitude": 2.8061989, "Source": "wind_offshore", "Power": "3.3 MW", "generator:source": "wind", "generator:type": "horizontal_axis", "manufacturer:type": "V112", "offshore": "yes", "manufacturer": "Vestas"}, {"ID": "6000766203", "WGS84Latitude": 51.6342234, "WGS84Longitude": 2.8105644, "Source": "wind_offshore", "Power": "3.3 MW", "generator:source": "wind", "generator:type": "horizontal_axis", "manufacturer:type": "V112", "offshore": "yes", "manufacturer": "Vestas"}, {"ID": "6000766202", "WGS84Latitude": 51.6324059, "WGS84Longitude": 2.8139035, "Source": "wind_offshore", "Power": "3.3 MW", "generator:source": "wind", "generator:type": "horizontal_axis", "manufacturer:type": "V112", "offshore": "yes", "manufacturer": "Vestas"}, {"ID": "6000766201", "WGS84Latitude": 51.6260938, "WGS84Longitude": 2.8087543, "Source": "wind_offshore", "Power": "3.3 MW", "generator:source": "wind", "generator:type": "horizontal_axis", "manufacturer:type": "V112", "offshore": "yes", "manufacturer": "Vestas"}, {"ID": "6000766200", "WGS84Latitude": 51.6297292, "WGS84Longitude": 2.8049211, "Source": "wind_offshore", "Power": "3.3 MW", "generator:source": "wind", "generator:type": "horizontal_axis", "manufacturer:type": "V112", "offshore": "yes", "manufacturer": "Vestas"}, {"ID": "4879916749", "WGS84Latitude": 51.649, "WGS84Longitude": 2.7675, "Source": "wind_offshore", "Power": "3.3 MW", "generator:source": "wind", "generator:type": "horizontal_axis", "source": "MDK - Afdeling KUST - Vlaamse Hydrografie: http://www.afdelingkust.be/sites/default/files/atoms/files/baz201711_151-168_EN.pdf(2017-11/158)", "manufacturer:type": "V112", "offshore": "yes", "manufacturer": "Vestas"}, {"ID": "6000766215", "WGS84Latitude": 51.6522291, "WGS84Longitude": 2.8404162, "Source": "wind_offshore", "Power": "3.3 MW", "generator:source": "wind", "generator:type": "horizontal_axis", "manufacturer:type": "V112", "offshore": "yes", "manufacturer": "Vestas"}, {"ID": "4879916747", "WGS84Latitude": 51.711333, "WGS84Longitude": 2.801, "Source": "wind_offshore", "Power": "3.3 MW", "generator:source": "wind", "generator:type": "horizontal_axis", "source": "MDK - Afdeling KUST - Vlaamse Hydrografie: http://www.afdelingkust.be/sites/default/files/atoms/files/baz201711_151-168_EN.pdf(2017-11/158)", "manufacturer:type": "V112", "offshore": "yes", "manufacturer": "Vestas"}, {"ID": "6000766224", "WGS84Latitude": 51.6625997, "WGS84Longitude": 2.8534064, "Source": "wind_offshore", "Power": "3.3 MW", "generator:source": "wind", "generator:type": "horizontal_axis", "manufacturer:type": "V112", "offshore": "yes", "manufacturer": "Vestas"}, {"ID": "6000766234", "WGS84Latitude": 51.6748493, "WGS84Longitude": 2.8615669, "Source": "wind_offshore", "Power": "3.3 MW", "generator:source": "wind", "generator:type": "horizontal_axis", "manufacturer:type": "V112", "offshore": "yes", "manufacturer": "Vestas"}, {"ID": "6000766233", "WGS84Latitude": 51.6782827, "WGS84Longitude": 2.8554977, "Source": "wind_offshore", "Power": "3.3 MW", "generator:source": "wind", "generator:type": "horizontal_axis", "manufacturer:type": "V112", "offshore": "yes", "manufacturer": "Vestas"}, {"ID": "6000766232", "WGS84Latitude": 51.6809896, "WGS84Longitude": 2.851771, "Source": "wind_offshore", "Power": "3.3 MW", "generator:source": "wind", "generator:type": "horizontal_axis", "manufacturer:type": "V112", "offshore": "yes", "manufacturer": "Vestas"}, {"ID": "6000766231", "WGS84Latitude": 51.6838284, "WGS84Longitude": 2.8467666, "Source": "wind_offshore", "Power": "3.3 MW", "generator:source": "wind", "generator:type": "horizontal_axis", "manufacturer:type": "V112", "offshore": "yes", "manufacturer": "Vestas"}, {"ID": "6000766230", "WGS84Latitude": 51.6831359, "WGS84Longitude": 2.8332823, "Source": "wind_offshore", "Power": "3.3 MW", "generator:source": "wind", "generator:type": "horizontal_axis", "manufacturer:type": "V112", "offshore": "yes", "manufacturer": "Vestas"}, {"ID": "6000766229", "WGS84Latitude": 51.6784808, "WGS84Longitude": 2.8396326, "Source": "wind_offshore", "Power": "3.3 MW", "generator:source": "wind", "generator:type": "horizontal_axis", "manufacturer:type": "V112", "offshore": "yes", "manufacturer": "Vestas"}, {"ID": "6000766228", "WGS84Latitude": 51.6751134, "WGS84Longitude": 2.8442111, "Source": "wind_offshore", "Power": "3.3 MW", "generator:source": "wind", "generator:type": "horizontal_axis", "manufacturer:type": "V112", "offshore": "yes", "manufacturer": "Vestas"}, {"ID": "6000766227", "WGS84Latitude": 51.6723402, "WGS84Longitude": 2.8485767, "Source": "wind_offshore", "Power": "3.3 MW", "generator:source": "wind", "generator:type": "horizontal_axis", "manufacturer:type": "V112", "offshore": "yes", "manufacturer": "Vestas"}, {"ID": "6000766226", "WGS84Latitude": 51.6696988, "WGS84Longitude": 2.8553912, "Source": "wind_offshore", "Power": "3.3 MW", "generator:source": "wind", "generator:type": "horizontal_axis", "manufacturer:type": "V112", "offshore": "yes", "manufacturer": "Vestas"}, {"ID": "6000766225", "WGS84Latitude": 51.6669912, "WGS84Longitude": 2.8598632, "Source": "wind_offshore", "Power": "3.3 MW", "generator:source": "wind", "generator:type": "horizontal_axis", "manufacturer:type": "V112", "offshore": "yes", "manufacturer": "Vestas"}, {"ID": "6000766222", "WGS84Latitude": 51.6698644, "WGS84Longitude": 2.8403097, "Source": "wind_offshore", "Power": "3.3 MW", "generator:source": "wind", "generator:type": "horizontal_axis", "manufacturer:type": "V112", "offshore": "yes", "manufacturer": "Vestas"}, {"ID": "4879916746", "WGS84Latitude": 51.672167, "WGS84Longitude": 2.866167, "Source": "wind_offshore", "Power": "3.3 MW", "generator:source": "wind", "generator:type": "horizontal_axis", "source": "MDK - Afdeling KUST - Vlaamse Hydrografie: http://www.afdelingkust.be/sites/default/files/atoms/files/baz201711_151-168_EN.pdf(2017-11/158)", "manufacturer:type": "V112", "offshore": "yes", "manufacturer": "Vestas"}, {"ID": "6000766221", "WGS84Latitude": 51.6763019, "WGS84Longitude": 2.8313274, "Source": "wind_offshore", "Power": "3.3 MW", "generator:source": "wind", "generator:type": "horizontal_axis", "manufacturer:type": "V112", "offshore": "yes", "manufacturer": "Vestas"}, {"ID": "6000766220", "WGS84Latitude": 51.6706233, "WGS84Longitude": 2.8276007, "Source": "wind_offshore", "Power": "3.3 MW", "generator:source": "wind", "generator:type": "horizontal_axis", "manufacturer:type": "V112", "offshore": "yes", "manufacturer": "Vestas"}, {"ID": "6000766219", "WGS84Latitude": 51.6671233, "WGS84Longitude": 2.8327116, "Source": "wind_offshore", "Power": "3.3 MW", "generator:source": "wind", "generator:type": "horizontal_axis", "manufacturer:type": "V112", "offshore": "yes", "manufacturer": "Vestas"}, {"ID": "6000766218", "WGS84Latitude": 51.6648779, "WGS84Longitude": 2.8248323, "Source": "wind_offshore", "Power": "3.3 MW", "generator:source": "wind", "generator:type": "horizontal_axis", "manufacturer:type": "V112", "offshore": "yes", "manufacturer": "Vestas"}, {"ID": "6000766217", "WGS84Latitude": 51.659462, "WGS84Longitude": 2.8349476, "Source": "wind_offshore", "Power": "3.3 MW", "generator:source": "wind", "generator:type": "horizontal_axis", "manufacturer:type": "V112", "offshore": "yes", "manufacturer": "Vestas"}, {"ID": "6000766216", "WGS84Latitude": 51.6573817, "WGS84Longitude": 2.8466984, "Source": "wind_offshore", "Power": "3.3 MW", "generator:source": "wind", "generator:type": "horizontal_axis", "manufacturer:type": "V112", "offshore": "yes", "manufacturer": "Vestas"}, {"ID": "6000766194", "WGS84Latitude": 51.6950496, "WGS84Longitude": 2.7922504, "Source": "wind_offshore", "Power": "3.3 MW", "generator:source": "wind", "generator:type": "horizontal_axis", "manufacturer:type": "V112", "offshore": "yes", "manufacturer": "Vestas"}, {"ID": "6000766214", "WGS84Latitude": 51.6545079, "WGS84Longitude": 2.8302627, "Source": "wind_offshore", "Power": "3.3 MW", "generator:source": "wind", "generator:type": "horizontal_axis", "manufacturer:type": "V112", "offshore": "yes", "manufacturer": "Vestas"}, {"ID": "4879916744", "WGS84Latitude": 51.621333, "WGS84Longitude": 2.8015, "Source": "wind_offshore", "Power": "3.3 MW", "generator:source": "wind", "generator:type": "horizontal_axis", "source": "MDK - Afdeling KUST - Vlaamse Hydrografie: http://www.afdelingkust.be/sites/default/files/atoms/files/baz201711_151-168_EN.pdf(2017-11/158)", "manufacturer:type": "V112", "offshore": "yes", "manufacturer": "Vestas"}, {"ID": "4879916745", "WGS84Latitude": 51.6475269, "WGS84Longitude": 2.8332324, "Source": "wind_offshore", "Power": "3.3 MW", "generator:source": "wind", "generator:type": "horizontal_axis", "source": "MDK - Afdeling KUST - Vlaamse Hydrografie: http://www.afdelingkust.be/sites/default/files/atoms/files/baz201711_151-168_EN.pdf(2017-11/158)", "manufacturer:type": "V112", "offshore": "yes", "manufacturer": "Vestas"}, {"ID": "6000766195", "WGS84Latitude": 51.6745192, "WGS84Longitude": 2.7800055, "Source": "wind_offshore", "Power": "3.3 MW", "generator:source": "wind", "generator:type": "horizontal_axis", "manufacturer:type": "V112", "offshore": "yes", "manufacturer": "Vestas"}, {"ID": "6000766223", "WGS84Latitude": 51.6655718, "WGS84Longitude": 2.8486149, "Source": "wind_offshore", "Power": "3.3 MW", "generator:source": "wind", "generator:type": "horizontal_axis", "manufacturer:type": "V112", "offshore": "yes", "manufacturer": "Vestas"}, {"ID": "6000766193", "WGS84Latitude": 51.7058722, "WGS84Longitude": 2.798852, "Source": "wind_offshore", "Power": "3.3 MW", "generator:source": "wind", "generator:type": "horizontal_axis", "manufacturer:type": "V112", "offshore": "yes", "manufacturer": "Vestas"}, {"ID": "8670275700", "WGS84Latitude": 50.0233461, "WGS84Longitude": 5.6010717, "Source": "wind_onshore", "Power": "3.3 MW", "generator:source": "wind", "generator:type": "horizontal_axis", "manufacturer:type": "N100", "manufacturer": "Nordex", "height:hub": "100"}, {"ID": "8670275715", "WGS84Latitude": 50.0123591, "WGS84Longitude": 5.6177648, "Source": "wind_onshore", "Power": "3.3 MW", "generator:source": "wind", "generator:type": "horizontal_axis", "manufacturer:type": "N100", "manufacturer": "Nordex", "height:hub": "100"}, {"ID": "6000766192", "WGS84Latitude": 51.7076538, "WGS84Longitude": 2.8070507, "Source": "wind_offshore", "Power": "3.3 MW", "generator:source": "wind", "generator:type": "horizontal_axis", "manufacturer:type": "V112", "offshore": "yes", "manufacturer": "Vestas"}, {"ID": "8670275709", "WGS84Latitude": 50.0211499, "WGS84Longitude": 5.6059015, "Source": "wind_onshore", "Power": "3.3 MW", "generator:source": "wind", "generator:type": "horizontal_axis", "manufacturer:type": "N100", "manufacturer": "Nordex", "height:hub": "100"}, {"ID": "8670275698", "WGS84Latitude": 50.0282491, "WGS84Longitude": 5.5905591, "Source": "wind_onshore", "Power": "3.3 MW", "generator:source": "wind", "generator:type": "horizontal_axis", "manufacturer:type": "N100", "manufacturer": "Nordex", "height:hub": "100"}, {"ID": "8670275699", "WGS84Latitude": 50.0257792, "WGS84Longitude": 5.5958043, "Source": "wind_onshore", "Power": "3.3 MW", "generator:source": "wind", "generator:type": "horizontal_axis", "manufacturer:type": "N100", "manufacturer": "Nordex", "height:hub": "100"}, {"ID": "4578575265", "WGS84Latitude": 51.1878309, "WGS84Longitude": 3.7715315, "Source": "wind_onshore", "Power": "3.2 MW", "generator:source": "wind", "generator:type": "horizontal_axis", "source": "https://edfluminus.edf.com/nl/edf-luminus/onze-activiteiten/we-produceren-energie/windenergie/windmolenpark-van-rieme-noord", "manufacturer": "Siemens", "operator": "EDF"}, {"ID": "7937528056", "WGS84Latitude": 51.1911519, "WGS84Longitude": 3.7716579, "Source": "wind_onshore", "Power": "3.2 MW", "generator:source": "wind", "generator:type": "horizontal_axis", "source": "https://edfluminus.edf.com/nl/edf-luminus/onze-activiteiten/we-produceren-energie/windenergie/windmolenpark-van-rieme-noord", "manufacturer": "Siemens", "operator": "EDF"}, {"ID": "8670211263", "WGS84Latitude": 50.4967214, "WGS84Longitude": 5.2689675, "Source": "wind_onshore", "Power": "3.2 MW", "generator:source": "wind", "generator:type": "horizontal_axis", "manufacturer:type": "3.2M114", "manufacturer": "Senvion"}, {"ID": "4578575263", "WGS84Latitude": 51.1839705, "WGS84Longitude": 3.7771619, "Source": "wind_onshore", "Power": "3.2 MW", "generator:source": "wind", "generator:type": "horizontal_axis", "source": "https://edfluminus.edf.com/nl/edf-luminus/onze-activiteiten/we-produceren-energie/windenergie/windmolenpark-van-rieme-noord", "manufacturer": "Siemens", "operator": "EDF"}, {"ID": "4578575262", "WGS84Latitude": 51.1839663, "WGS84Longitude": 3.7687027, "Source": "wind_onshore", "Power": "3.2 MW", "generator:source": "wind", "generator:type": "horizontal_axis", "source": "https://edfluminus.edf.com/nl/edf-luminus/onze-activiteiten/we-produceren-energie/windenergie/windmolenpark-van-rieme-noord", "manufacturer": "Siemens", "operator": "EDF"}, {"ID": "5359072888", "WGS84Latitude": 51.4969963, "WGS84Longitude": 4.7509075, "Source": "wind_onshore", "Power": "3.2 MW", "generator:source": "wind", "generator:type": "horizontal_axis", "manufacturer:type": "SWT-DD-3.2-113", "manufacturer": "Siemens Gamesa Renewable Energy S.A.", "operator": "Luminus"}, {"ID": "5359071528", "WGS84Latitude": 51.4924041, "WGS84Longitude": 4.7493916, "Source": "wind_onshore", "Power": "3.2 MW", "generator:source": "wind", "generator:type": "horizontal_axis", "manufacturer:type": "SWT-DD-3.2-113", "manufacturer": "Siemens Gamesa Renewable Energy S.A.", "operator": "Luminus"}, {"ID": "6335280856", "WGS84Latitude": 50.5288303, "WGS84Longitude": 4.1805405, "Source": "wind_onshore", "Name": "Lucie", "Power": "3.2 MW", "generator:source": "wind", "generator:type": "horizontal_axis", "start_date": "2019", "manufacturer": "Siemens Gamesa", "height": "150", "operator": "Wind4Wallonia"}, {"ID": "6335280855", "WGS84Latitude": 50.5311793, "WGS84Longitude": 4.1765845, "Source": "wind_onshore", "Name": "Lilou", "Power": "3.2 MW", "generator:source": "wind", "generator:type": "horizontal_axis", "start_date": "2019", "manufacturer": "Siemens Gamesa", "height": "150", "operator": "Wind4Wallonia"}, {"ID": "6335277530", "WGS84Latitude": 50.5340254, "WGS84Longitude": 4.1733388, "Source": "wind_onshore", "Name": "Louise", "Power": "3.2 MW", "generator:source": "wind", "generator:type": "horizontal_axis", "start_date": "2019", "manufacturer": "Siemens Gamesa", "height": "150", "operator": "Wind4Wallonia"}, {"ID": "8670211261", "WGS84Latitude": 50.4931634, "WGS84Longitude": 5.2656174, "Source": "wind_onshore", "Power": "3.2 MW", "generator:source": "wind", "generator:type": "horizontal_axis", "manufacturer:type": "3.2M114", "manufacturer": "Senvion"}, {"ID": "8670211262", "WGS84Latitude": 50.4936096, "WGS84Longitude": 5.2721234, "Source": "wind_onshore", "Power": "3.2 MW", "generator:source": "wind", "generator:type": "horizontal_axis", "manufacturer:type": "3.2M114", "manufacturer": "Senvion"}, {"ID": "8670211260", "WGS84Latitude": 50.4957317, "WGS84Longitude": 5.263299, "Source": "wind_onshore", "Power": "3.2 MW", "generator:source": "wind", "generator:type": "horizontal_axis", "manufacturer:type": "3.2M114", "manufacturer": "Senvion"}, {"ID": "8670211255", "WGS84Latitude": 50.4989885, "WGS84Longitude": 5.2594292, "Source": "wind_onshore", "Power": "3.2 MW", "generator:source": "wind", "generator:type": "horizontal_axis", "manufacturer:type": "3.2M114", "manufacturer": "Senvion"}, {"ID": "5834313438", "WGS84Latitude": 51.270547, "WGS84Longitude": 4.3906745, "Source": "wind_onshore", "Power": "3.2 MW", "generator:source": "wind", "generator:type": "horizontal_axis", "manufacturer": "Enercon", "operator": "VLEEMO"}, {"ID": "5834313439", "WGS84Latitude": 51.2661153, "WGS84Longitude": 4.3970396, "Source": "wind_onshore", "Power": "3.2 MW", "generator:source": "wind", "generator:type": "horizontal_axis", "start_date": "2018", "manufacturer": "Enercon", "operator": "VLEEMO"}, {"ID": "6206181350", "WGS84Latitude": 50.420833, "WGS84Longitude": 5.122037, "Source": "wind_onshore", "Power": "3.2 MW", "generator:source": "wind", "generator:type": "horizontal_axis", "manufacturer:type": "SWT-3.2-113", "start_date": "2018-11", "manufacturer": "Siemens", "rotor:diameter": "113", "height": "92.5", "operator": "Windvision Parc Eolien Gesves-Ohey"}, {"ID": "6206181349", "WGS84Latitude": 50.4167461, "WGS84Longitude": 5.1177809, "Source": "wind_onshore", "Power": "3.2 MW", "generator:source": "wind", "generator:type": "horizontal_axis", "manufacturer:type": "SWT-3.2-113", "start_date": "2018-11", "manufacturer": "Siemens", "rotor:diameter": "113", "height": "92.5", "operator": "Windvision Parc Eolien Gesves-Ohey"}, {"ID": "6206181348", "WGS84Latitude": 50.4131123, "WGS84Longitude": 5.1131945, "Source": "wind_onshore", "Power": "3.2 MW", "generator:source": "wind", "generator:type": "horizontal_axis", "manufacturer:type": "SWT-3.2-113", "start_date": "2018-11", "manufacturer": "Siemens", "rotor:diameter": "113", "height": "92.5", "operator": "Windvision Parc Eolien Gesves-Ohey"}, {"ID": "6206181347", "WGS84Latitude": 50.410249, "WGS84Longitude": 5.1090944, "Source": "wind_onshore", "Power": "3.2 MW", "generator:source": "wind", "generator:type": "horizontal_axis", "manufacturer:type": "SWT-3.2-113", "start_date": "2018-11", "manufacturer": "Siemens", "rotor:diameter": "113", "height": "92.5", "operator": "Windvision Parc Eolien Gesves-Ohey"}, {"ID": "7996674151", "WGS84Latitude": 51.0843371, "WGS84Longitude": 5.1722365, "Source": "wind_onshore", "Name": "SWT-3.2-113", "Power": "3.2 MW", "generator:source": "wind", "generator:type": "horizontal_axis", "ele": "-", "manufacturer": "Siemens Gamesa Renewable Energy S.A.", "height": "-"}, {"ID": "7996674150", "WGS84Latitude": 51.0818023, "WGS84Longitude": 5.166006, "Source": "wind_onshore", "Name": "SWT-3.2-113", "Power": "3.2 MW", "generator:source": "wind", "generator:type": "horizontal_axis", "ele": "-", "manufacturer": "Siemens Gamesa Renewable Energy S.A.", "height": "-"}, {"ID": "6206181346", "WGS84Latitude": 50.407093, "WGS84Longitude": 5.1016512, "Source": "wind_onshore", "Power": "3.2 MW", "generator:source": "wind", "generator:type": "horizontal_axis", "manufacturer:type": "SWT-3.2-113", "start_date": "2018-11", "manufacturer": "Siemens", "rotor:diameter": "113", "height": "92.5", "operator": "Windvision Parc Eolien Gesves-Ohey"}, {"ID": "6206181345", "WGS84Latitude": 50.4045469, "WGS84Longitude": 5.0954385, "Source": "wind_onshore", "Power": "3.2 MW", "generator:source": "wind", "generator:type": "horizontal_axis", "manufacturer:type": "SWT-3.2-113", "start_date": "2018-11", "manufacturer": "Siemens", "rotor:diameter": "113", "height": "92.5", "operator": "Windvision Parc Eolien Gesves-Ohey"}, {"ID": "5961023598", "WGS84Latitude": 51.2499668, "WGS84Longitude": 4.3892802, "Source": "wind_onshore", "Power": "3.2 MW", "construction:power": "generator", "generator:source": "wind", "generator:type": "horizontal_axis", "start_date": "2018", "manufacturer": "Enercon", "operator": "VLEEMO"}, {"ID": "5359069765", "WGS84Latitude": 51.4881677, "WGS84Longitude": 4.7477834, "Source": "wind_onshore", "Power": "3.2 MW", "generator:source": "wind", "generator:type": "horizontal_axis", "manufacturer:type": "SWT-DD-3.2-113", "manufacturer": "Siemens Gamesa Renewable Energy S.A.", "operator": "Luminus"}, {"ID": "4578575264", "WGS84Latitude": 51.1869574, "WGS84Longitude": 3.7756372, "Source": "wind_onshore", "Power": "3.2 MW", "generator:source": "wind", "generator:type": "horizontal_axis", "source": "https://edfluminus.edf.com/nl/edf-luminus/onze-activiteiten/we-produceren-energie/windenergie/windmolenpark-van-rieme-noord", "manufacturer": "Siemens", "operator": "EDF"}, {"ID": "8211849147", "WGS84Latitude": 51.0767302, "WGS84Longitude": 4.3586497, "Source": "wind_onshore", "Power": "3.2 MW", "generator:source": "wind", "generator:type": "horizontal_axis", "manufacturer:type": "3.4M114", "manufacturer": "Senvion"}, {"ID": "5359041711", "WGS84Latitude": 51.0748121, "WGS84Longitude": 3.9363561, "Source": "wind_onshore", "Power": "3 MW", "generator:source": "wind", "generator:type": "horizontal_axis"}, {"ID": "6000764147", "WGS84Latitude": 51.6435408, "WGS84Longitude": 2.7934216, "Source": "wind_offshore", "Power": "3 MW", "generator:source": "wind", "generator:type": "horizontal_axis", "manufacturer:type": "V90", "offshore": "yes", "manufacturer": "Vestas"},